business_status,formatted_address,name,place_id,rating,types,latitude,longitude,state
OPERATIONAL,"Av LIC.Adolfo López M.Ote 1001, San Luís, 20250 Aguascalientes, Ags., Mexico",BBVA Aguascalientes Quijote,ChIJkySim3PuKYQR6VtatBtbYKY,3.2,"['bank', 'atm', 'finance', 'point_of_interest', 'establishment']",21.877871,-102.2737974,Aguascalientes
OPERATIONAL,"Av, 5 de Mayo 112, 20000 Aguascalientes, Ags., Mexico",BBVA Bancomer AGS Office Center,ChIJQeb3zXzuKYQRL0tIOCJIxj4,3.9,"['bank', 'atm', 'finance', 'point_of_interest', 'establishment']",21.8815281,-102.2969801,Aguascalientes
OPERATIONAL,"Av Aguascalientes Sur 603, Cd Industrial, México, 20235 Aguascalientes, Ags., Mexico",BBVA Aguascalientes,ChIJkfpGScXtKYQR3SfdWyirAw0,3.4,"['bank', 'atm', 'finance', 'point_of_interest', 'establishment']",21.8598681,-102.2798972,Aguascalientes
OPERATIONAL,"Avenida Universidad 117, Bosques del Prado Sur, 20120 Aguascalientes, Ags., Mexico",BBVA Bosques,ChIJuSceueLuKYQRGVX2q-UOtJ8,3.0,"['bank', 'atm', 'finance', 'point_of_interest', 'establishment']",21.9147169,-102.3126106,Aguascalientes
OPERATIONAL,"Agropecuario, Av Aguascalientes Nte 1698, 20138 Aguascalientes, Ags., Mexico",BBVA Aguascalientes Pulgas Pandas,ChIJIxqo6FTuKYQR_nCSHsOk7Rc,3.5,"['bank', 'atm', 'finance', 'point_of_interest', 'establishment']",21.9152157,-102.2969577,Aguascalientes
OPERATIONAL,"Blvd. A Zacatecas 849, Trojes de Alonso, 20116 Aguascalientes, Ags., Mexico",BBVA Altaria,ChIJC8MlD67vKYQRiL7_n3QCGbc,2.9,"['bank', 'atm', 'finance', 'point_of_interest', 'establishment']",21.9245323,-102.2897871,Aguascalientes
OPERATIONAL,"Av. José Ma. Chávez 1010, Lindavista, 20270 Aguascalientes, Ags., Mexico",BBVA Boulevard,ChIJ68qwbdbtKYQR5vvqYCuYGLU,3.2,"['bank', 'atm', 'finance', 'point_of_interest', 'establishment']",21.8686951,-102.2943638,Aguascalientes
OPERATIONAL,"Av. Monte Blanco LB, Desarrollo Especial Colegio Cristóbal Colón, 20115 Aguascalientes, Ags., Mexico",Bancomer,ChIJ9zRxggfvKYQREK8-DEtHrDc,2.6,"['bank', 'atm', 'finance', 'point_of_interest', 'establishment']",21.9256012,-102.3011423,Aguascalientes
OPERATIONAL,"Zona 1, Av. de la Convención de 1914 Nte., 20010 Aguascalientes, Ags., Mexico",BBVA Plaza San Marcos,ChIJiSzQZfLuKYQRvlek_hOR8IQ,2.3,"['bank', 'atm', 'finance', 'point_of_interest', 'establishment']",21.8954318,-102.3102319,Aguascalientes
OPERATIONAL,"Av. de los Maestros 2615, Pirules, 20210 Aguascalientes, Ags., Mexico",BBVA,ChIJcbwq3STsKYQRoH05RuIl3E4,2.9,"['bank', 'atm', 'finance', 'point_of_interest', 'establishment']",21.8588144,-102.3166823,Aguascalientes
OPERATIONAL,"Av Siglo XXI 1302, Balcones de Ojocaliente, 20190 Aguascalientes, Ags., Mexico",BBVA Haciendas De Ags,ChIJIdCaQ-PxKYQR32HjEJmxpHM,2.3,"['bank', 'atm', 'finance', 'point_of_interest', 'establishment']",21.861416,-102.2490132,Aguascalientes
OPERATIONAL,"Av. Convención de 1914 Pte. No. 101, Centro, 20000 Aguascalientes, Ags., Mexico",BBVA Expoplaza,ChIJuUImuIbuKYQRhZrjiL2TB-g,3.5,"['bank', 'atm', 'finance', 'point_of_interest', 'establishment']",21.8746297,-102.3116278,Aguascalientes
OPERATIONAL,"Av. Convención de 1914 Pte., Barrio de San Marcos, 20070 Aguascalientes, Ags., Mexico",BBVA,ChIJEbS1VoPuKYQRpJYDdnlfr7Q,2.9,"['atm', 'finance', 'point_of_interest', 'establishment']",21.8962219,-102.3113928,Aguascalientes
OPERATIONAL,"Av Aguascalientes Sur 603, Desarrollo Especial Quinta Real, 20276 Aguascalientes, Ags., Mexico",ATM / CASHIER BANCOMER SUC. AGUASCALIENTES,ChIJkfpGScXtKYQRGjWqzuVqjbY,2.3,"['atm', 'finance', 'point_of_interest', 'establishment']",21.8586844,-102.2878142,Aguascalientes
OPERATIONAL,"Av Tecnológico No. 120, Ojocaliente, 20198 Aguascalientes, Ags., Mexico",BBVA,ChIJmYod5QPuKYQRa5q_pj9Z6jc,2.9,"['bank', 'atm', 'finance', 'point_of_interest', 'establishment']",21.8782632,-102.2603356,Aguascalientes
OPERATIONAL,"Av. Morelos 123, Centro Histórico, 20400 Rincón de Romos, Ags., Mexico",BBVA Rincón De Romos,ChIJSXmEVjgJgoYRESqTOi0BU8o,4.2,"['bank', 'atm', 'finance', 'point_of_interest', 'establishment']",22.2290481,-102.3210995,Aguascalientes
OPERATIONAL,"Av Siglo XXI 1302, Nazario Ortiz Garza, 20170 Aguascalientes, Ags., Mexico",BBVA 1000,ChIJIY8dCG7vKYQRJGwlS85Cf-U,3.1,"['atm', 'finance', 'point_of_interest', 'establishment']",21.9060833,-102.2572872,Aguascalientes
OPERATIONAL,"Plaza Principal 102, Zona Centro, 20800 Calvillo, Ags., Mexico",BBVA Calvillo,ChIJl0zcgQPMKYQRgTo7qLcU4J8,3.5,"['bank', 'atm', 'finance', 'point_of_interest', 'establishment']",21.8465961,-102.7191455,Aguascalientes
OPERATIONAL,"Av Independencia 2301, Desarrollo Especial Galerías, 20120 Aguascalientes, Ags., Mexico",Atm/Cajero BBVA Walmart Aguascalientes,ChIJ9faLXKnvKYQRfMeEAm8LyVQ,2.3,"['atm', 'finance', 'point_of_interest', 'establishment']",21.9236016,-102.2959997,Aguascalientes
OPERATIONAL,"Av Aguascalientes Nte 802, Desarrollo Especial Bulevar a Zacatecas, 20126 Aguascalientes, Ags., Mexico",Atm/Cajero BBVA Costco Aguascalientes,ChIJpS_Ma03uKYQRoGRlu69_nQo,3.9,"['atm', 'finance', 'point_of_interest', 'establishment']",21.9161,-102.288,Aguascalientes
OPERATIONAL,"Medellín 310, Roma Sur, Cuauhtémoc, 06760 Ciudad de México, CDMX, Mexico",BBVA Baja California,ChIJX7qrxRX_0YUR5gh9KO2-kds,3.5,"['bank', 'atm', 'finance', 'point_of_interest', 'establishment']",19.4064046,-99.16304290000001,Baja California
OPERATIONAL,"And. Juan M. de Salvatierra Loreto s/n, Centro, 23880 Loreto, B.C.S., Mexico",BBVA,ChIJ63AH5oU7tIYRCLSPP34ZJ-w,2.9,"['bank', 'atm', 'finance', 'point_of_interest', 'establishment']",26.0105026,-111.3422116,Baja California Sur
OPERATIONAL,"Agustín Olacheaa S/N, Real, Centro, 23680 Cd Constitución, B.C.S., Mexico",BBVA,ChIJdd9dK8qks4YRz3tgqUq01QE,3.7,"['bank', 'atm', 'finance', 'point_of_interest', 'establishment']",25.0284295,-111.6716345,Baja California Sur
OPERATIONAL,"Mariano Abasolo 3690, Pueblo Nuevo, 23060 La Paz, B.C.S., Mexico",BBVA,ChIJ601y67QsroYRNeiA3ueaBo8,2.6,"['bank', 'atm', 'finance', 'point_of_interest', 'establishment']",24.1434996,-110.3324226,Baja California Sur
OPERATIONAL,"Blvd. Forjadores 4260, Instituto Tecnológico Regional, 23050 La Paz, B.C.S., Mexico",BBVA Bancomer LA PAZ SOUTHWEST,ChIJUTtSZCHTr4YR4MZ8al_q1sU,3.3,"['bank', 'atm', 'finance', 'point_of_interest', 'establishment']",24.1248713,-110.3113868,Baja California Sur
OPERATIONAL,"Álvaro Obregón, Calle 5 S/N, Centro, 23920 Santa Rosalía, B.C.S., Mexico",BBVA,ChIJeQCOXPbCyoYRb2MRhJfMg0k,3.9,"['bank', 'atm', 'finance', 'point_of_interest', 'establishment']",27.3361151,-112.2698764,Baja California Sur
OPERATIONAL,"Isabel La Católica 1820, Zona Central, 23020 La Paz, B.C.S., Mexico",BBVA,ChIJeeH3qEHTr4YRlFFFqV4Weis,3.7,"['bank', 'atm', 'finance', 'point_of_interest', 'establishment']",24.1502684,-110.306124,Baja California Sur
OPERATIONAL,"Blvd, Luis Donaldo Colosio, Las Garzas, 23079 La Paz, B.C.S., Mexico",BBVA,ChIJ-xi3IDLTr4YRsJnrRiaUw7E,3.0,"['bank', 'atm', 'finance', 'point_of_interest', 'establishment']",24.1309208,-110.325108,Baja California Sur
OPERATIONAL,"16 de Septiembre 38, Zona Central, 23000 La Paz, B.C.S., Mexico",BBVA,ChIJ8wADYFjTr4YRfxgNB2bXOt8,4.4,"['bank', 'atm', 'finance', 'point_of_interest', 'establishment']",24.1631078,-110.3159894,Baja California Sur
OPERATIONAL,"BLV. Benito Juarez 7 0TE, Ciudad Insurgentes, 23700 Comondú, B.C.S., Mexico",Cajero Banorte,ChIJD4lUIzBWtIYRhRKHcPpD9FI,0.0,"['atm', 'finance', 'point_of_interest', 'establishment']",26.0707889,-111.8442001,Baja California Sur
OPERATIONAL,"Calle General Martinez y Zaragoza S/N, Centro, 23900 Heroica Mulegé, B.C.S., Mexico",BBVA Mulege,ChIJd6_hO3aCyoYRwWLGa7w1N64,5.0,"['bank', 'atm', 'finance', 'point_of_interest', 'establishment']",26.8909146,-111.9840443,Baja California Sur
OPERATIONAL,"Colima, Pueblo Nuevo, 23060 La Paz, B.C.S., Mexico",Atm/Cajero BBVA Cc Californiano,ChIJgdrl0rQsroYRpHQYMsmKpBI,0.0,"['atm', 'finance', 'point_of_interest', 'establishment']",24.1431,-110.331,Baja California Sur
OPERATIONAL,"Calle Ignacio Zaragoza, Centro, 23400 San José del Cabo, B.C.S., Mexico",BBVA,ChIJ88Pcop1Qr4YR_PEhLw9tklY,2.8,"['bank', 'atm', 'finance', 'point_of_interest', 'establishment']",23.06171,-109.6965258,Baja California Sur
OPERATIONAL,"Blvd. Constituyentes 1311, El Arenal, 23410 Cabo San Lucas, B.C.S., Mexico",BBVA Cabo San Lucas Constituyentes,ChIJHz6Hm1dKr4YRa94G3k2d230,2.0,"['bank', 'atm', 'finance', 'point_of_interest', 'establishment']",22.9004613,-109.9136766,Baja California Sur
OPERATIONAL,"Área Ah, 24014 Campeche, Mexico",BBVA Bancomer HEADQUARTERS,ChIJi2-mUvgz-IURO7s87Pr9JvI,2.9,"['bank', 'atm', 'finance', 'point_of_interest', 'establishment']",19.8507024,-90.5334535,Campeche
OPERATIONAL,"Av Cto Baluartes 100, Zona Centro, 24000 Campeche, Camp., Mexico",BBVA Bancomer MARKET,ChIJbWRNxvoz-IURlZHYWkoNyrY,2.3,"['bank', 'atm', 'finance', 'point_of_interest', 'establishment']",19.8425739,-90.5339522,Campeche
OPERATIONAL,"Av Patricio Trueba de Regil S/N, Tepeyac, 24096 Campeche, Camp., Mexico",BBVA,ChIJLafaltsz-IURmy0JfDaTvFQ,4.1,"['bank', 'atm', 'finance', 'point_of_interest', 'establishment']",19.8227065,-90.53202569999999,Campeche
OPERATIONAL,"Bodega Aurrera, Av Gobernadores 201, Aviación, 24070 Campeche, Camp., Mexico",ATM / CASHIER BANCOMER BOD AURRERA CAMPECHE,ChIJw1-wU08x-IURRnE8jUU8ZFo,4.5,"['atm', 'finance', 'point_of_interest', 'establishment']",19.8417235,-90.5119816,Campeche
OPERATIONAL,"Calle 18 S/N, Zona Centro, 24000 Campeche, Camp., Mexico",Afore Bbva Bancomer,ChIJQWmz8KPGJIQRUXAsIpeQb70,0.0,"['bank', 'finance', 'point_of_interest', 'establishment']",19.8425781,-90.5339984,Campeche
OPERATIONAL,"Álvaro barret 3, Ah-kim-Pech, 24000 Campeche, Camp., Mexico",Bbva Bancomer,ChIJcQwe1_kz-IUR5TqEIoxZx84,4.0,"['bank', 'finance', 'point_of_interest', 'establishment']",19.850202,-90.5348491,Campeche
OPERATIONAL,"Av López Portillo, Internacional Ingeneiro Alberto Acuña Ongay, Campeche, Camp., Mexico",Atm/Cajero BBVA Aeropuerto De Campeche277,ChIJL8Y_Wwwx-IURb20yqDW2eow,5.0,"['atm', 'finance', 'point_of_interest', 'establishment']",19.8140992,-90.5037837,Campeche
OPERATIONAL,"Pedro Sainz de Baranda 139, Área Ah, 24014 Campeche, Camp., Mexico",BBVA,ChIJdXjXoqs2-IUR_Wk7aC9G1L0,5.0,"['bank', 'atm', 'finance', 'point_of_interest', 'establishment']",19.8568216,-90.52238559999999,Campeche
OPERATIONAL,"Marí Lavalle Urbina, San Francisco, 24010 Campeche, Camp., Mexico",BBVA Bancomer,ChIJqe3_DAA0-IURG6Paw204PUQ,0.0,"['atm', 'finance', 'point_of_interest', 'establishment']",19.8542399,-90.5268447,Campeche
OPERATIONAL,"Av Gobernadores 418, Barrio de Sta Ana, 24050 Campeche, Camp., Mexico",Atm/Cajero BBVA Chedraui Campeche,ChIJoTCnuVcx-IUR3lmxU-82RFg,4.0,"['atm', 'finance', 'point_of_interest', 'establishment']",19.8438,-90.5244,Campeche
OPERATIONAL,"11, Pedro Sainz de Baranda 139, Área Ah, 24014 Campeche, Camp., Mexico",Cajero Bancomer,ChIJMxYivas2-IURG2eCDZjcXW0,4.7,"['bank', 'atm', 'finance', 'point_of_interest', 'establishment']",19.8574672,-90.5223642,Campeche
OPERATIONAL,"Av. Alvaro Obregon 443, Barrio de Sta Lucía, 24020 Campeche, Camp., Mexico",Atm/Cajero BBVA Chedraui Campeche Ii,ChIJc-cgwy0x-IURO03V4lpwDvY,5.0,"['atm', 'finance', 'point_of_interest', 'establishment']",19.8488234,-90.4954195,Campeche
OPERATIONAL,"Av. María Lavalle Urbina 436, Área Ah, 24014 Campeche, Camp., Mexico",BBVA Bancomer,ChIJQXsUCCsz-IURWQM6WE5jCu0,0.0,"['bank', 'finance', 'point_of_interest', 'establishment']",19.8507768,-90.5332924,Campeche
OPERATIONAL,"Av López Mateos 479, Barrio de San José, 24040 Campeche, Camp., Mexico",Atm/Cajero BBVA Victor Fdo May Olvera1983,ChIJncSRSpQz-IURx2nycmFKrmo,3.3,"['atm', 'finance', 'point_of_interest', 'establishment']",19.8329761,-90.5478218,Campeche
OPERATIONAL,"Av. Lázaro Cárdenas, Campeche, Camp., Mexico",Atm/Cajero BBVA Hosp Alta Especialidad1278,ChIJvxN1Dn0x-IURQ2HDVpGUEoo,5.0,"['atm', 'finance', 'point_of_interest', 'establishment']",19.8149646,-90.5243933,Campeche
OPERATIONAL,"Eje 1 S/N, El Relicario, 29286 San Cristóbal de las Casas, Chis., Mexico",BBVA,ChIJOUqo2GhF7YUR1KY8mM40DDU,2.5,"['bank', 'atm', 'finance', 'point_of_interest', 'establishment']",16.7203343,-92.64269499999999,Chiapas
OPERATIONAL,"C. Guadalupe Victoria 10, Centro, Zona Centro, 29200 San Cristóbal de las Casas, Chis., Mexico",BBVA,ChIJzTmuHxZF7YUROMAH4fik1uQ,3.7,"['bank', 'atm', 'finance', 'point_of_interest', 'establishment']",16.7372055,-92.6392953,Chiapas
OPERATIONAL,"Av Central Nte 13, Centro, 30400 Cintalapa, Chis., Mexico",BBVA,ChIJ9yoErt2n7IURZwMLApc-q5s,3.3,"['bank', 'atm', 'finance', 'point_of_interest', 'establishment']",16.3649631,-92.36955259999999,Chiapas
OPERATIONAL,"Blvd, Central Nte. 122, Nicalocok, 30068 Comitán de Domínguez, Chis., Mexico",BBVA,ChIJxbwz2lI_jYURwwQG7PSiLxA,3.4,"['bank', 'atm', 'finance', 'point_of_interest', 'establishment']",16.2579508,-92.1428433,Chiapas
OPERATIONAL,"Primera Avenida Ote. Sur 2, Centro, 30000 Comitán de Domínguez, Chis., Mexico",BBVA Ofna. Principal Comitán,ChIJk4DgGbA4jYURmwdKGu-4cIw,4.5,"['bank', 'atm', 'finance', 'point_of_interest', 'establishment']",16.2521768,-92.1345814,Chiapas
OPERATIONAL,"Blvd. Sur Dr. Blisario Domínguez 8, Candelaria, 30000 Comitán de Domínguez, Chis., Mexico",ATM / CASHIER BANCOMER SUC BOULEVARD COMITAN,ChIJnXoyQqk4jYURCbBhPONXCtU,4.5,"['bank', 'atm', 'finance', 'point_of_interest', 'establishment']",16.248415,-92.1411552,Chiapas
OPERATIONAL,"Luis Donaldo Colosio no.12, Centro, 29200 San Cristóbal de las Casas, Chis., Mexico",BBVA Ofna. Principal San Cristóbal,ChIJ6bDX5j1F7YURTg0WtF8Fw6c,2.5,"['bank', 'atm', 'finance', 'point_of_interest', 'establishment']",16.7480398,-92.6298963,Chiapas
OPERATIONAL,"Comitán de Domínguez -Ciudad Cuauhtémoc, Latino América, 30068 Comitán de Domínguez, Chis., Mexico",Atm/Cajero BBVA Suc Comitan C Abastos1642,ChIJxbwz2lI_jYURzB2X-1WBNgY,3.5,"['atm', 'finance', 'point_of_interest', 'establishment']",16.2406,-92.1373,Chiapas
OPERATIONAL,"Av Julián Grajales 5, San Jacinto, 29160 Chiapa de Corzo, Chis., Mexico",BBVA,ChIJzQ2iC_4l7YUR9kvAM4txiMk,3.2,"['bank', 'atm', 'finance', 'point_of_interest', 'establishment']",16.7076396,-93.0161834,Chiapas
OPERATIONAL,"Primera Avenida Ote. Nte., Centro, 30000 Comitán de Domínguez, Chis., Mexico",Atm/Cajero BBVA Ofna Principal Comitan923,ChIJk4DgGbA4jYURy78dyQS1H2s,0.0,"['atm', 'finance', 'point_of_interest', 'establishment']",16.252099,-92.13459999999999,Chiapas
OPERATIONAL,"Av Central Pte 314, Santo Domingo, 29000 Tuxtla Gutiérrez, Chis., Mexico",BBVA Bancomer CENTER Tuxtla Gutierrez,ChIJaSvKTfPY7IUROO7523A6hIs,3.4,"['bank', 'atm', 'finance', 'point_of_interest', 'establishment']",16.7541594,-93.1180297,Chiapas
OPERATIONAL,"Blvd. Belisario Domínguez 1625, La Lomita, 29060 Tuxtla Gutiérrez, Chis., Mexico",BBVA,ChIJpUXgy_vY7IURZWPqi6xX-U8,3.8,"['bank', 'atm', 'finance', 'point_of_interest', 'establishment']",16.7539717,-93.13048909999999,Chiapas
OPERATIONAL,"Los Girasoles, Norte, 29950 Ocosingo chis, Chiapas, Mexico",Atm/Cajero BBVA Municipio De Ocosingo153,ChIJca1-r3Dq8oURqaSHi81KgGo,3.3,"['atm', 'finance', 'point_of_interest', 'establishment']",16.9133029,-92.0932247,Chiapas
OPERATIONAL,"9a. Sur Ote. No.783, Asamblea de barrio, Centro, 29070 Tuxtla Gutiérrez, Chis., Mexico",BBVA,ChIJX1e_WmLY7IURn1Dd8bEo-go,3.8,"['bank', 'atm', 'finance', 'point_of_interest', 'establishment']",16.7452223,-93.1109199,Chiapas
OPERATIONAL,"Blvd. Belisario Domínguez 1861, Samuel León Brindis, 29058 Tuxtla Gutiérrez, Chis., Mexico",BBVA,ChIJCSRsHQ_Z7IURKt3SCserDAk,3.6,"['bank', 'atm', 'finance', 'point_of_interest', 'establishment']",16.7541318,-93.1381701,Chiapas
OPERATIONAL,"E. Zapata, Bienestar Soc, 29077 Tuxtla Gutiérrez, Chis., Mexico",BBVA,ChIJB1ystngn7YUREUnYG4TeV38,3.1,"['bank', 'atm', 'finance', 'point_of_interest', 'establishment']",16.7487241,-93.0923961,Chiapas
OPERATIONAL,"Blvd Andres Serra Rojo 250, El Retiro, 29040 Tuxtla Gutiérrez, Chis., Mexico",BBVA Tuxtla Soriana Oriente,ChIJf2kJkXUn7YURve_z398Rk1U,2.5,"['bank', 'atm', 'finance', 'point_of_interest', 'establishment']",16.7483704,-93.0813319,Chiapas
OPERATIONAL,"Plaza Las Américas, 5a. Nte. Pte. 2651, 29030 Tuxtla Gutiérrez, Chis., Mexico",BBVA,ChIJFV_LTxzZ7IUR9vCATpfRCsU,4.3,"['bank', 'atm', 'finance', 'point_of_interest', 'establishment']",16.7630121,-93.1413839,Chiapas
OPERATIONAL,"Primera Pte. Nte. S/N, Centro, 29930 Yajalón, Chis., Mexico",BBVA,ChIJo0Hn5tCF8oURHAELbVqGraI,4.1,"['bank', 'atm', 'finance', 'point_of_interest', 'establishment']",17.1745548,-92.3339805,Chiapas
OPERATIONAL,"Central Sur, Nevelandia, 30140 Frontera Comalapa, Chis., Mexico",BBVA,ChIJk3cG7wuijYURkWbv1w5fX0s,2.8,"['bank', 'atm', 'finance', 'point_of_interest', 'establishment']",15.6592371,-92.1408955,Chiapas
OPERATIONAL,"Avenida Universidad 3117, Universidad, 31203 Chihuahua, Chih., Mexico",BBVA Chihuahua Universidad,ChIJVQAJNhRD6oYRs3uTmC9UB4c,3.8,"['bank', 'atm', 'finance', 'point_of_interest', 'establishment']",28.657594,-106.0928747,Chihuahua
OPERATIONAL,"Av. Independencia 601, Zona Centro, 31000 Chihuahua, Chih., Mexico",BBVA Chihuahua Independencia,ChIJj90tblJD6oYRdDQPippTG64,3.3,"['bank', 'atm', 'finance', 'point_of_interest', 'establishment']",28.6360687,-106.0752697,Chihuahua
OPERATIONAL,"Av José María Iglesias s/n, Panorámico, 31107 Chihuahua, Chih., Mexico",BBVA Chihuahua Jose Maria Iglesias,ChIJ2VqWmwJD6oYRJlRZZCW7K10,4.0,"['bank', 'atm', 'finance', 'point_of_interest', 'establishment']",28.664764,-106.1104661,Chihuahua
OPERATIONAL,"Av Cristobal Colón 14545, Paseos de Chihuahua, 31125 Chihuahua, Chih., Mexico",BBVA,ChIJ6QqY6h9C6oYREyZksqKZ9OY,3.0,"['bank', 'atm', 'finance', 'point_of_interest', 'establishment']",28.7142636,-106.1359891,Chihuahua
OPERATIONAL,"Av. Mirador 3300, Virreyes, Campestre-Lomas, 31237 Chihuahua, Chih., Mexico",BBVA,ChIJbbLCfiVD6oYRYFtk2Gb0OZM,3.3,"['bank', 'atm', 'finance', 'point_of_interest', 'establishment']",28.6414111,-106.1026503,Chihuahua
OPERATIONAL,"Blvrd Antonio Ortiz Mena 206, San Felipe V Etapa, 31240 Chihuahua, Chih., Mexico",BBVA Chihuahua Mall,ChIJXw45sjxD6oYRborYo--wTLk,3.2,"['bank', 'atm', 'finance', 'point_of_interest', 'establishment']",28.6472522,-106.0993641,Chihuahua
OPERATIONAL,"Periferico, Ortiz Mena 2823, Quintas del Sol, 31250 Chihuahua, Chih., Mexico",BBVA Lomas Campestres,ChIJo_G8qDJD6oYRbNxNEuY0Xy0,2.9,"['bank', 'atm', 'finance', 'point_of_interest', 'establishment']",28.6302427,-106.0988919,Chihuahua
OPERATIONAL,"Blvd. Jose Fuentes Mares 1901, Nueva España I y II, 31063 Chihuahua, Chih., Mexico",BBVA,ChIJuw_9Uztb6oYR92AedfyZgN0,2.3,"['bank', 'atm', 'finance', 'point_of_interest', 'establishment']",28.6210299,-106.0292505,Chihuahua
OPERATIONAL,"Av. Benito Juárez 3115, Zona Centro, 31000 Chihuahua, Chih., Mexico",BBVA Chihuahua Centro,ChIJxzbsu1lD6oYRa8C1zrf3yQI,2.9,"['bank', 'atm', 'finance', 'point_of_interest', 'establishment']",28.6462,-106.0688357,Chihuahua
OPERATIONAL,"Vialidad Los Nogales 1301, Atanasio Ortega, 31137 Chihuahua, Chih., Mexico",BBVA,ChIJK-90WpBB6oYRZCFcj1o52fg,3.6,"['bank', 'atm', 'finance', 'point_of_interest', 'establishment']",28.7310086,-106.1257041,Chihuahua
OPERATIONAL,"J. de La Luz Corral 1700, Santo Niño, 31200 Chihuahua, Chih., Mexico",BBVA Chihuahua Universidad,ChIJTybdIkRD6oYREHV2KhgmZPY,3.3,"['bank', 'atm', 'finance', 'point_of_interest', 'establishment']",28.6469298,-106.080781,Chihuahua
OPERATIONAL,"Av. Cuauhtémoc 3201, Cuauhtémoc, 31000 Chihuahua, Chih., Mexico",BBVA Chihuahua Zarco,ChIJzb03B7Vc6oYR0AD8wq3rCZQ,3.6,"['bank', 'atm', 'finance', 'point_of_interest', 'establishment']",28.6283835,-106.0847079,Chihuahua
OPERATIONAL,"Av. Vallarta y, Catalpa Loc. 1, Las Granjas, 31160 Chihuahua, Chih., Mexico",BBVA Vallarta Chihuahua,ChIJBzHauQdD6oYRPtPHPPhVwSk,3.1,"['bank', 'atm', 'finance', 'point_of_interest', 'establishment']",28.6722338,-106.1009192,Chihuahua
OPERATIONAL,"Av. de las Américas 108, San Felipe I Etapa, 31203 Chihuahua, Chih., Mexico",BBVA,ChIJ6f5PMhpD6oYRT6O_TinJ-10,3.6,"['bank', 'atm', 'finance', 'point_of_interest', 'establishment']",28.6580306,-106.1021917,Chihuahua
OPERATIONAL,"Num. 11377, Calle Industrias, 31136 Chihuahua, Chih., Mexico",BBVA Sendero Chihuahua,ChIJ6V75kAVB6oYRAl79hcwyhyw,4.4,"['bank', 'atm', 'finance', 'point_of_interest', 'establishment']",28.7229535,-106.1128875,Chihuahua
OPERATIONAL,"Calle Francisco Xavier Mina 2201, Santa Rita, 31020 Chihuahua, Chih., Mexico",BBVA Bancomer Chihuahua Santa Rita,ChIJkxZHv61c6oYRWbd3cJna08E,2.6,"['bank', 'atm', 'finance', 'point_of_interest', 'establishment']",28.6252442,-106.0755641,Chihuahua
OPERATIONAL,"Av Francisco Villa 3000, Zona Sin Asignación de Nombre de Colonia, 31110 Chihuahua, Chih., Mexico",BBVA Chihuahua Saucito,ChIJZ1dXW_FC6oYRghC8FlW_A1s,2.8,"['bank', 'atm', 'finance', 'point_of_interest', 'establishment']",28.665525,-106.126672,Chihuahua
OPERATIONAL,"Sierra Campaña, Av. Hacienda del Valle SN, Haciendas Sta Fe, 31216 Chihuahua, Chih., Mexico",BBVA,ChIJNbsQzSxd6oYRb-7cgFJl42Q,2.9,"['bank', 'atm', 'finance', 'point_of_interest', 'establishment']",28.6267338,-106.1130598,Chihuahua
OPERATIONAL,"Trasviña y Retes s/n, San Felipe I Etapa, Chihuahua, Chih., Mexico",BBVA Bancomer,ChIJC5oVszxD6oYR5Den1-4OKVQ,5.0,"['bank', 'finance', 'point_of_interest', 'establishment']",28.647212,-106.0992158,Chihuahua
OPERATIONAL,"Calle San Miguel el Grande 15301, Quintas Sebastián, 31125 Chihuahua, Chih., Mexico",BBVA,ChIJea4L8MFD6oYRkXE0msMVJQg,2.7,"['bank', 'atm', 'finance', 'point_of_interest', 'establishment']",28.7118122,-106.1513025,Chihuahua
OPERATIONAL,"Francisco Y, Francisco I. Madero 125, Centro, 25500 San Buenaventura, Coah., Mexico",BBVA,ChIJweJKqPLHi4YRWdzSEOjXGNo,4.5,"['bank', 'atm', 'finance', 'point_of_interest', 'establishment']",27.0605043,-101.5469969,Coahuila de Zaragoza
OPERATIONAL,"Cuauhtémoc 200, Zona Centro, 25600 Frontera, Coah., Mexico",BBVA,ChIJCZJLx2jOi4YRSxdx7_pWPlY,3.1,"['bank', 'atm', 'finance', 'point_of_interest', 'establishment']",26.9272609,-101.4513689,Coahuila de Zaragoza
OPERATIONAL,"Venustiano Carranza 500, Centro, 25700 Monclova, Coah., Mexico",BBVA,ChIJR7PFoPbNi4YRDWT8z5lvvK4,3.4,"['bank', 'atm', 'finance', 'point_of_interest', 'establishment']",26.9014412,-101.4166731,Coahuila de Zaragoza
OPERATIONAL,"Pdte. Benito Juárez 309, Norte Centro, 26340 Santa Rosa de Múzquiz, Coah., Mexico",BBVA Múzquiz,ChIJu9B_MjEji4YRmzgvJmWTtoI,4.7,"['bank', 'atm', 'finance', 'point_of_interest', 'establishment']",27.8790104,-101.5169452,Coahuila de Zaragoza
OPERATIONAL,"Blvd Harold R. Pape 1300, Palma, 25730 Monclova, Coah., Mexico",ATM / CASHIER BANCOMER SUC GALERIAS,ChIJb6ZQmefNi4YRoO9vW8Q7yzA,2.3,"['bank', 'atm', 'finance', 'point_of_interest', 'establishment']",26.9188823,-101.4241339,Coahuila de Zaragoza
OPERATIONAL,"México 30, Amalia Solorzano, San Buenaventura, Coah., Mexico",Atm/Cajero BBVA Oxxo La Feria1076,ChIJbXtWgd3Hi4YRo07jslWuy98,0.0,"['atm', 'finance', 'point_of_interest', 'establishment']",27.0496205,-101.5332735,Coahuila de Zaragoza
OPERATIONAL,"Blvd. Harold R. Pape y, Lic. Elsa Hdz. de Las Fuentes No. 100, 25750 Monclova, Coah., Mexico",BBVA Monclova Ofna. Principal,ChIJcQD_9fzNi4YRV0ZWxIms5kE,4.0,"['bank', 'atm', 'finance', 'point_of_interest', 'establishment']",26.9046223,-101.429459,Coahuila de Zaragoza
OPERATIONAL,"Francisco I. Madero 133, Centro, 26700 Sabinas, Coah., Mexico",BBVA,ChIJDQDQ6IHCioYRiRv3W8N2M3A,5.0,"['bank', 'atm', 'finance', 'point_of_interest', 'establishment']",27.849332,-101.1210167,Coahuila de Zaragoza
OPERATIONAL,"BLVD, Venustiano Carranza 500, Zona Centro, 25700 Monclova, Coah., Mexico",Atm/Cajero BBVA Suc Monclova Centro,ChIJR7PFoPbNi4YRPercm1C5lBQ,5.0,"['atm', 'finance', 'point_of_interest', 'establishment']",26.901678,-101.4171983,Coahuila de Zaragoza
OPERATIONAL,"26230, Benito Juárez Nte. 309, 26530 Allende, Coah., Mexico",BBVA,ChIJOZ6WaI9O9YYRkYoPZQT7bEo,4.7,"['bank', 'atm', 'finance', 'point_of_interest', 'establishment']",28.3448709,-100.8524449,Coahuila de Zaragoza
OPERATIONAL,"Pdte. Venustiano Carranza 104, Comercial, 26850 Nueva Rosita, Coah., Mexico",BBVA,ChIJNXnFiorbioYRhzBhCZ16tD0,4.4,"['bank', 'atm', 'finance', 'point_of_interest', 'establishment']",27.9336452,-101.2259268,Coahuila de Zaragoza
OPERATIONAL,"Francisco I. Madero 202, Zona Centro, 25600 Frontera, Coah., Mexico",Atm/Cajero BBVA F Benavides Frontera,ChIJO3IyuWjOi4YRJ-d7XVDfoeA,0.0,"['atm', 'finance', 'point_of_interest', 'establishment']",26.926302,-101.4528757,Coahuila de Zaragoza
OPERATIONAL,"Industrial, Zona Industrial, 25618 Frontera, Coah., Mexico",Atm/Cajero BBVA Super Gutierrez1919,ChIJFxZvW_nRi4YR69BKPDG_qZQ,5.0,"['atm', 'finance', 'point_of_interest', 'establishment']",26.888773,-101.4389316,Coahuila de Zaragoza
OPERATIONAL,"Blvd Harold R. Pape 1202, La Loma, 25770 Monclova, Coah., Mexico",Atm/Cajero BBVA Soriana Pape1527,ChIJY5eY8wXSi4YRP02a0XBI2lE,5.0,"['atm', 'finance', 'point_of_interest', 'establishment']",26.8894,-101.423,Coahuila de Zaragoza
OPERATIONAL,"Av Adolfo López Mateos 2004, Barrera, 25770 Monclova, Coah., Mexico",Atm/Cajero BBVA Aramark Monclova Manuf606,ChIJ4Q__d4fNi4YRo91vVQZYpIA,5.0,"['atm', 'finance', 'point_of_interest', 'establishment']",26.8999432,-101.396508,Coahuila de Zaragoza
OPERATIONAL,"Calle Huemac S/N, Anáhuac, 25756 Monclova, Coah., Mexico",Atm/Cajero BBVA Soriana Monclova294,ChIJl7hlWwHOi4YRjBa8ius0eDQ,5.0,"['atm', 'finance', 'point_of_interest', 'establishment']",26.9003227,-101.4392247,Coahuila de Zaragoza
OPERATIONAL,"Lic. Nicolás Torres, 26340 Múzquiz Municipality, Coahuila, Mexico",Atm/Cajero BBVA Suc M Muzquiz686,ChIJu9B_MjEji4YRyPzb0-C5BzQ,0.0,"['atm', 'finance', 'point_of_interest', 'establishment']",27.879,-101.517,Coahuila de Zaragoza
OPERATIONAL,"Ahmsa, 1, Juárez, Altos Hornos de México S.a. Planta 1, 25750 Monclova, Coah., Mexico",Atm/Cajero BBVA Ahmsa 2,ChIJt1SBkxLSi4YRVOzdvIjPsss,0.0,"['atm', 'finance', 'point_of_interest', 'establishment']",26.8848008,-101.4197818,Coahuila de Zaragoza
OPERATIONAL,"México 57, Asturias, 25790 Monclova, Coah., Mexico",Atm/Cajero BBVA Oxxo Asturias853,ChIJFU3D5SzSi4YRPuoAnvSehIU,3.2,"['atm', 'finance', 'point_of_interest', 'establishment']",26.8513422,-101.4259586,Coahuila de Zaragoza
OPERATIONAL,"Blvrd San Jose, Heroes del 47, 25740 Monclova, Coah., Mexico",Atm/Cajero BBVA Super Gutierrez1155,ChIJ78ywo5LNi4YRPvjNP2QCf6E,1.0,"['atm', 'finance', 'point_of_interest', 'establishment']",26.9096,-101.41,Coahuila de Zaragoza
OPERATIONAL,"Calle Francisco I. Madero 106, Centro, 28000 Colima, Col., Mexico",BBVA,ChIJV6ScgqtaJYQR8Fvx5hCCLq0,3.5,"['bank', 'atm', 'finance', 'point_of_interest', 'establishment']",19.2419626,-103.7263599,Colima
OPERATIONAL,"Walmart, Av Tecnológico 125, Miguel Hidalgo I, 28037 Colima, Col., Mexico",Atm/Cajero BBVA Walmart Colima Norte654,ChIJ95oyWLZaJYQRBXrd_DZ7ADA,0.0,"['atm', 'finance', 'point_of_interest', 'establishment']",19.2573366,-103.720558,Colima
OPERATIONAL,"Av. San Fernando 502, Centro, 28000 Colima, Col., Mexico",BBVA Colima Ofna Principal,ChIJP8kUTqRaJYQRff5KgMswJRM,3.5,"['bank', 'atm', 'finance', 'point_of_interest', 'establishment']",19.245623,-103.7143914,Colima
OPERATIONAL,"Av. Constitución 2171, Los Olivos, 28017 Colima, Col., Mexico",BBVA Los Olivos,ChIJp5Ota8JaJYQRdb8FQR5t_Eo,3.7,"['bank', 'atm', 'finance', 'point_of_interest', 'establishment']",19.2695141,-103.7078203,Colima
OPERATIONAL,"Felipe Sevilla del Río 115, Jardines Vista Hermosa I, 28017 Colima, Col., Mexico",BBVA Sevilla Del Rio,ChIJXXCmh7laJYQRXncB-DLcCx0,2.9,"['bank', 'atm', 'finance', 'point_of_interest', 'establishment']",19.2555962,-103.714887,Colima
OPERATIONAL,"Av Gral Manuel Alvarez 40, Centro, 28970 Villa de Álvarez, Col., Mexico",BBVA,ChIJOcr4uDZFJYQRgVLpGWIhkyM,3.3,"['bank', 'atm', 'finance', 'point_of_interest', 'establishment']",19.263793,-103.7352748,Colima
OPERATIONAL,"Av. San Fernando 502, Centro, 28000 Colima, Col., Mexico",BBVA Pensiones,ChIJO5upqnVbJYQRy__7qBA_rvk,0.0,"['accounting', 'finance', 'point_of_interest', 'establishment']",19.245623,-103.7143914,Colima
OPERATIONAL,"AV, Paseo Miguel De la Madrid Hurtado No. 301, 28018 Colima, Col., Mexico",BBVA,ChIJS2uJew5bJYQRnhNFdrItuG4,5.0,"['bank', 'atm', 'finance', 'point_of_interest', 'establishment']",19.2670511,-103.6974452,Colima
OPERATIONAL,"Calz. Pedro A. Galván Nte. Norte 120, Centro, 28000 Colima, Col., Mexico",Atm/Cajero BBVA Walmart Colima,ChIJ93Js66daJYQRTFaqugWNA1k,5.0,"['atm', 'finance', 'point_of_interest', 'establishment']",19.2385417,-103.7155936,Colima
OPERATIONAL,"Ismael Aguayo Figueroa, El Ángel, 28979 Villa de Álvarez, Col., Mexico",BBVA,ChIJ8_1GeSpFJYQRZ9h1HyackOo,4.7,"['bank', 'atm', 'finance', 'point_of_interest', 'establishment']",19.284485,-103.7360986,Colima
OPERATIONAL,"Av. San Fernando 502, Centro, 28000 Colima, Col., Mexico",BBVA Centro Especializado en Recuperación de Crédito,ChIJ6cqdRi5bJYQRHPN8eM8N5f4,0.0,"['finance', 'point_of_interest', 'establishment']",19.245542,-103.7144343,Colima
OPERATIONAL,"María Ahumada de Gómez 39, Infraestructura Urbana Plaza Colima, 28970 Villa de Álvarez, Col., Mexico",Atm/Cajero BBVA Soriana Colima1128,ChIJA6SDsS9FJYQREmG-moCSrQI,4.3,"['atm', 'finance', 'point_of_interest', 'establishment']",19.2729515,-103.7372568,Colima
OPERATIONAL,"México 54D m31, El Porvenir II, 28019 Colima, Col., Mexico",Cajero Autamotico BBVA BANCOMER,ChIJU_iFrYlaJYQRjgn7Qy7VIuA,5.0,"['atm', 'finance', 'point_of_interest', 'establishment']",19.2547812,-103.6847823,Colima
OPERATIONAL,"Wal Mart, Av. Manuel J. Clouthier 91, Jardines de Bugambilias, 28978 Villa de Álvarez, COAH, Mexico",BBVA Bancomer,ChIJaUhW-ipFJYQRqyIE8UAyqXM,3.7,"['atm', 'finance', 'point_of_interest', 'establishment']",19.2805343,-103.7311205,Colima
OPERATIONAL,"Benito Juárez 2, Emiliano Zapata, 28500 Cuauhtémoc, Col., Mexico",BBVA Colima Cuauhtemoc,ChIJ63MckHdZJYQRKEHkJfdOjsI,0.0,"['bank', 'atm', 'finance', 'point_of_interest', 'establishment']",19.3242726,-103.6005291,Colima
OPERATIONAL,"Av 20 de Noviembre 604, Zona Centro, 34000 Durango, Dgo., Mexico",BBVA Bancomer OF DURANGO. CENTER,ChIJ69YgVz3Im4YRwfU4cc9L84k,3.9,"['bank', 'atm', 'finance', 'point_of_interest', 'establishment']",24.0268765,-104.6564262,Durango
OPERATIONAL,"General, Blvd. Domingo Arrieta 700 Fracc, Sahop, 34190 Durango, Dgo., Mexico",BBVA Durango blvd. Arrieta,ChIJp8MRKv7Hm4YRC-Ave7MDRNs,3.1,"['bank', 'atm', 'finance', 'point_of_interest', 'establishment']",24.0016021,-104.6620161,Durango
OPERATIONAL,"Av 20 de Noviembre 604, Nueva Vizcaya, 34000 Durango, Dgo., Mexico",BBVA Bancomer Home Office,ChIJoe1wut23m4YRIVmJymnjX4U,3.8,"['bank', 'atm', 'finance', 'insurance_agency', 'point_of_interest', 'establishment']",24.0282784,-104.6509881,Durango
OPERATIONAL,"Blvd. Felipe Pescador 1401, La Esperanza, 34080 Durango, Dgo., Mexico",BBVA,ChIJg2tORNq3m4YR27qULeWoFqo,2.3,"['bank', 'atm', 'finance', 'point_of_interest', 'establishment']",24.0346481,-104.6508947,Durango
OPERATIONAL,"Blvrd Francisco Villa 1620, Guadalupe, 34220 Durango, Dgo., Mexico",BBVA,ChIJ5V-1H7G3m4YRV5jJHdXCA14,3.5,"['bank', 'atm', 'finance', 'point_of_interest', 'establishment']",24.0428206,-104.6276487,Durango
OPERATIONAL,"Real del Mezquital 103, Real del Mezquital, 34199 Durango, Dgo., Mexico",BBVA,ChIJL2GvbQK4m4YRMuo4pkQ1svc,3.2,"['bank', 'atm', 'finance', 'point_of_interest', 'establishment']",24.000877,-104.651749,Durango
OPERATIONAL,"Av 20 de Noviembre 604, Zona Centro, 34000 Durango, Dgo., Mexico",Bbva Bancomer Suc Centro,ChIJXfffRt63m4YRfXGo7UV4z6g,4.1,"['bank', 'finance', 'point_of_interest', 'establishment']",24.0243168,-104.6707946,Durango
OPERATIONAL,"Blvd. Domingo Arrieta 1700, Gral Domingo Arrieta, 34180 Durango, Dgo., Mexico",BBVA Bancomer,ChIJ1-kdOPnHm4YRMl3VZD8Abhg,5.0,"['atm', 'finance', 'point_of_interest', 'establishment']",23.9951557,-104.6632197,Durango
OPERATIONAL,"Av 20 de Noviembre 302, Zona Centro, 34000 Durango, Dgo., Mexico",Atm/Cajero BBVA Suc Durango Matriz1236,ChIJoe1wut23m4YR6F6TBpbt-Ao,4.3,"['atm', 'finance', 'point_of_interest', 'establishment']",24.0267572,-104.6632569,Durango
OPERATIONAL,"Calle Cto. Interior 423, Huizache II, 34160 Durango, Dgo., Mexico",BBVA Bancomer,ChIJmbtiB_e3m4YRuFMwiq5HsIo,3.5,"['atm', 'finance', 'point_of_interest', 'establishment']",24.0061397,-104.6455082,Durango
OPERATIONAL,"Blvd. Felipe Pescador 1401, La Esperanza, 34080 Durango, Dgo., Mexico",BBVA Bancomer ATM,ChIJk64GPdq3m4YRdkg-eAj90tc,5.0,"['atm', 'finance', 'point_of_interest', 'establishment']",24.035857,-104.652062,Durango
OPERATIONAL,"DGO 115 S/N, Sahop, 34190 Durango, Dgo., Mexico",Atm/Cajero BBVA Suc Blvd Arrieta319,ChIJp8MRKv7Hm4YR7V-kuVEwKEw,5.0,"['atm', 'finance', 'point_of_interest', 'establishment']",24.0016,-104.662,Durango
OPERATIONAL,"Avenida Felipe Pescador 1401 Oriente, La Forestal, 34000 Durango, Dgo., Mexico",Atm/Cajero BBVA Sam'S Club Durango,ChIJ76na2tm3m4YRtoRHP2ARsNI,4.0,"['atm', 'finance', 'point_of_interest', 'establishment']",24.0362312,-104.6548825,Durango
CLOSED_TEMPORARILY,"Blvrd Francisco Villa 200, Glorieta, 34204 Durango, Dgo., Mexico",Atm/Cajero BBVA Plaza Jardines751,ChIJb1wdDbe3m4YRrWixYIhSkic,3.8,"['atm', 'finance', 'point_of_interest', 'establishment']",24.0405257,-104.6321395,Durango
OPERATIONAL,"Av. Benito Juárez 9, Zona Centro, 36000 Guanajuato, Gto., Mexico",BBVA Guanajuato Juárez,ChIJKX4VkAh0K4QR5W9821mHf6w,3.3,"['bank', 'atm', 'finance', 'point_of_interest', 'establishment']",21.0175517,-101.2554172,Guanajuato
OPERATIONAL,"Carr. Guanajuato - Juventino Rosas 1, 36255 León, Gto., Mexico",BBVA,ChIJR8lX7g50K4QRNl1Wi1kshzQ,2.1,"['bank', 'atm', 'finance', 'point_of_interest', 'establishment']",20.9707669,-101.278696,Guanajuato
OPERATIONAL,"Libertad 6, Centro, 36100 Silao, Gto., Mexico",BBVA,ChIJy9MI2ICcK4QR0y130mFhmZw,3.0,"['bank', 'atm', 'finance', 'point_of_interest', 'establishment']",20.9431955,-101.4285252,Guanajuato
OPERATIONAL,"Blvd. Adolfo López Mateos 1515, Conjunto Estrella, 37266 León, Gto., Mexico",BBVA Bancomer,ChIJqZQwYgC_K4QRzaJKhl9OTds,3.9,"['bank', 'atm', 'finance', 'point_of_interest', 'establishment']",21.1191648,-101.663498,Guanajuato
OPERATIONAL,"Blvd. Delta 201, Industrial Delta, 37545 León, Gto., Mexico",BBVA,ChIJo6g-eA--K4QR5I0NNNXeVTw,4.3,"['bank', 'atm', 'finance', 'point_of_interest', 'establishment']",21.0845921,-101.6265599,Guanajuato
OPERATIONAL,"Blvrd Miguel Hidalgo 1207, Villa Insurgentes, 37220 León, Gto., Mexico",BBVA Bancomer Hidalgo Leon Blvd.,ChIJzVFmVyO_K4QRFUx9r9O9JNc,2.9,"['bank', 'atm', 'finance', 'point_of_interest', 'establishment']",21.1465461,-101.6719196,Guanajuato
OPERATIONAL,"Av Paseo del Moral 301, Jardines del Moral, 37160 León, Gto., Mexico",BBVA León Jardines,ChIJJ0z1DES_K4QRSSQSJVpK4-E,3.5,"['bank', 'atm', 'finance', 'point_of_interest', 'establishment']",21.146,-101.691,Guanajuato
OPERATIONAL,"5 de Mayo 202, Centro, 37000 León, Gto., Mexico",BBVA Bancomer Centro León,ChIJ67EtYwy_K4QRb8DFEZ98_CA,3.9,"['bank', 'atm', 'finance', 'point_of_interest', 'establishment']",21.1236994,-101.6808511,Guanajuato
OPERATIONAL,"Blvrd Torres Landa Pte 1325, Centro Bodeguero Robles, 37450 León, Gto., Mexico",BBVA,ChIJc-FldIW_K4QRgOhMjb_jLNw,3.2,"['bank', 'atm', 'finance', 'point_of_interest', 'establishment']",21.1046308,-101.7021593,Guanajuato
OPERATIONAL,"Blvd. Aeropuerto 104, Cerrito de Jerez Nte., 37530 León, Gto., Mexico",BBVA,ChIJezkh6Q2-K4QRB82vEwBV2UA,4.2,"['bank', 'atm', 'finance', 'point_of_interest', 'establishment']",21.0923623,-101.626202,Guanajuato
OPERATIONAL,"Miguel Hidalgo 53, Zona Centro, 36200 Romita, Gto., Mexico",BBVA,ChIJA3Y6bjGFK4QR1gunw12SR5I,5.0,"['atm', 'finance', 'point_of_interest', 'establishment']",20.8721841,-101.5201761,Guanajuato
OPERATIONAL,"Villas 169, 36644 Irapuato, Gto., Mexico",BBVA,ChIJJzNlBbF_LIQRPF4HyrpcOks,3.5,"['bank', 'atm', 'finance', 'point_of_interest', 'establishment']",20.6758792,-101.3734827,Guanajuato
OPERATIONAL,"Blvd. Adolfo López Mateos Poniente 1103, 37328 León, Gto., Mexico",BBVA León Parque Hidalgo,ChIJK5Ybamy_K4QREruO5OJW0Pc,4.0,"['bank', 'atm', 'finance', 'point_of_interest', 'establishment']",21.1323932,-101.6880319,Guanajuato
OPERATIONAL,"Av Revolución 69, Centro, 36500 Irapuato, Gto., Mexico",BBVA Irapuato Sede,ChIJBaUgG9R_LIQRdH4wLqHAd8M,3.7,"['bank', 'atm', 'finance', 'point_of_interest', 'establishment']",20.6748642,-101.3479369,Guanajuato
OPERATIONAL,"Guanajuato 908, Los Reyes, 36590 Irapuato, Gto., Mexico",BBVA Bancomer Market Irapuato,ChIJ8TJdsi5-LIQRIjpAZos4pLw,3.6,"['bank', 'atm', 'finance', 'point_of_interest', 'establishment']",20.6628933,-101.3486972,Guanajuato
OPERATIONAL,"Av. 16 de Septiembre 145, Zona Centro, 44100 Guadalajara, Jal., Mexico",BBVA Bancomer,ChIJscqNcbOzKIQRdbyLz_6KHvc,2.9,"['bank', 'atm', 'finance', 'point_of_interest', 'establishment']",20.6745158,-103.3468611,Jalisco
OPERATIONAL,"Calz. Jesús González Gallo 350, Sector Reforma, 44430 Guadalajara, Jal., Mexico",BBVA Heroes Ferrocarrileros,ChIJN2LORxqyKIQR1FgPsuEoKjM,2.5,"['bank', 'atm', 'finance', 'point_of_interest', 'establishment']",20.6564281,-103.3428911,Jalisco
OPERATIONAL,"López Cotilla 40, Centro, 45700 Acatlán de Juárez, Jal., Mexico",BBVA,ChIJze6w9wL5JYQRyNgcMkvTksE,3.0,"['bank', 'atm', 'finance', 'point_of_interest', 'establishment']",20.4217868,-103.5920753,Jalisco
OPERATIONAL,"Av. Francisco Javier Mina 458, Sector Libertad, San Juan de Dios, 44360 Guadalajara, Jal., Mexico",BBVA Javier Mina,ChIJiVrTmYyxKIQRssmZVwxdyhA,3.4,"['bank', 'atm', 'finance', 'point_of_interest', 'establishment']",20.6732685,-103.3341384,Jalisco
OPERATIONAL,"Av Juárez 685, Zona Centro, 44100 Guadalajara, Jal., Mexico",BBVA Juárez,ChIJg1uOkfyxKIQR1K8cZBtwoEo,3.5,"['bank', 'atm', 'finance', 'point_of_interest', 'establishment']",20.6746195,-103.3541713,Jalisco
OPERATIONAL,"Pedro Moreno 25, Centro, 45300 Tala, Jal., Mexico",BBVA,ChIJU_Qk38IFJoQRm45kat7gaW0,2.3,"['bank', 'atm', 'finance', 'point_of_interest', 'establishment']",20.6502627,-103.7032609,Jalisco
OPERATIONAL,"Av. Adolfo López Mateos Sur 5468, Arboledas, 45070 Zapopan, Jal., Mexico",BBVA Bancomer Arboledas,ChIJ20H6qUWsKIQRiUt3dve4vpc,2.5,"['bank', 'atm', 'finance', 'point_of_interest', 'establishment']",20.6279872,-103.4188044,Jalisco
OPERATIONAL,"Calz Independencia Sur 161, Centro, 46900 Guadalajara, Jal., Mexico",BBVA Mascota,ChIJdXd_sPKmJoQR3X0L3sKivfA,2.5,"['bank', 'atm', 'finance', 'point_of_interest', 'establishment']",20.6723021,-103.3433156,Jalisco
OPERATIONAL,"Av. Patria 320, La Estancia, 45030 Zapopan, Jal., Mexico",BBVA Bancomer Patria Zapopan,ChIJdyd5tZmuKIQRaSAxW8jLRLA,2.2,"['bank', 'atm', 'finance', 'point_of_interest', 'establishment']",20.6698769,-103.4246499,Jalisco
OPERATIONAL,"Calle Gral Zepeda 2, Lomas de San Javier, 46600 Ameca, Jal., Mexico",BBVA,ChIJ66XlkE52JoQRGlSKN64-4ac,2.7,"['bank', 'atm', 'finance', 'point_of_interest', 'establishment']",20.5471188,-104.047031,Jalisco
OPERATIONAL,"Juárez 111, Centro, 46500 Etzatlán, Jal., Mexico",BBVA,ChIJdROBBWxvJoQReIqM-4qSzBw,3.8,"['bank', 'atm', 'finance', 'point_of_interest', 'establishment']",20.763165,-104.0817063,Jalisco
OPERATIONAL,"Ramón Corona NO. 51, Centro, 46470 Magdalena, Jal., Mexico",BBVA,ChIJyQ-u98JBJoQRbJlzhg3KkmM,0.0,"['bank', 'atm', 'finance', 'point_of_interest', 'establishment']",20.9089744,-103.9818116,Jalisco
OPERATIONAL,"Av. Ignacio L. Vallarta 1440, Col Americana, Americana, 44100 Guadalajara, Jal., Mexico",BBVA,ChIJHdfuJAWuKIQRrHZNricM1rI,2.8,"['bank', 'atm', 'finance', 'point_of_interest', 'establishment']",20.6751156,-103.3682052,Jalisco
OPERATIONAL,"Av Juárez 101, Zona Centro, 45500 San Pedro Tlaquepaque, Jal., Mexico",BBVA Parián,ChIJ0R_jTrOzKIQRwIVQsXuNOP0,4.2,"['bank', 'atm', 'finance', 'point_of_interest', 'establishment']",20.675134,-103.3440347,Jalisco
OPERATIONAL,"Plaza Tapatía, Paseo Hospicio 36, San Juan de Dios, 44360 Guadalajara, Jal., Mexico",BBVA Plaza Tapatía,ChIJK3bXFPKxKIQRVqC71kHoEVY,3.2,"['bank', 'atm', 'finance', 'point_of_interest', 'establishment']",20.6769309,-103.3401295,Jalisco
OPERATIONAL,"Av. Adolfo López Mateos Sur 2074, Chapalita, 45040 Guadalajara, Jal., Mexico",BBVA López Mateos,ChIJKf0endatKIQRv9wJ3IJsq5c,2.2,"['bank', 'atm', 'finance', 'point_of_interest', 'establishment']",20.6579765,-103.3987603,Jalisco
OPERATIONAL,"AV Tonala 295 Hidalgo DE, 45400 Tonalá, Jal., Mexico",BBVA,ChIJZYRJHY-0KIQRfrqLP9YMYw8,3.3,"['bank', 'atm', 'finance', 'point_of_interest', 'establishment']",20.6182793,-103.2516661,Jalisco
OPERATIONAL,"C. Independencia 16, Juanacatlán Centro, 45880 El Salto, Jal., Mexico",BBVA Juanacatlan Centro,ChIJGeJku_c1L4QR1p7YuAqQ6XE,4.1,"['bank', 'atm', 'finance', 'point_of_interest', 'establishment']",20.5059392,-103.1719396,Jalisco
OPERATIONAL,"Av. de las Américas 877, Italia Providencia, 44600 Guadalajara, Jal., Mexico",BBVA,ChIJ9cENdzyuKIQRzM7kY0Eoxm8,2.0,"['bank', 'atm', 'finance', 'point_of_interest', 'establishment']",20.6925742,-103.3736105,Jalisco
OPERATIONAL,"Av Enrique Díaz de León Sur 599, Col Americana, Moderna, 44190 Guadalajara, Jal., Mexico",BBVA Enrique Díaz De León,ChIJb6tsKwCuKIQRKpfl3nZQE-0,2.3,"['bank', 'atm', 'finance', 'point_of_interest', 'establishment']",20.667652,-103.3592252,Jalisco
OPERATIONAL,"Calle Lerdo de Tejada No. 9, Centro, 61100 Cd Hidalgo, Mich., Mexico",BBVA,ChIJH9d9GLTL0oURxfk7SOhtJBY,3.3,"['bank', 'atm', 'finance', 'point_of_interest', 'establishment']",19.6905098,-100.5565308,Michoacán
OPERATIONAL,"Portal Independencia No. 61, Centro, 61250 Maravatio, Mich., Mexico",BBVA,ChIJWby70ZzQ0oURycFaA9827Fo,2.9,"['bank', 'atm', 'finance', 'point_of_interest', 'establishment']",19.89223,-100.4431902,Michoacán
OPERATIONAL,"Av. Revolución Nte. 40-A, Centro, 61650 Zitácuaro, Mich., Mexico",BBVA Bancomer Center Tacámbaro,ChIJEV5DlRWHLYQR7LRacND_QU8,4.0,"['bank', 'atm', 'finance', 'point_of_interest', 'establishment']",19.4401556,-100.3545573,Michoacán
OPERATIONAL,"C. Dr. Emilio García Sur 23, Centro, 61500 Zitácuaro, Mich., Mexico",Bancomer BBVA,ChIJ7ShyiZik0oURGxWz5HEuRqw,3.1,"['bank', 'atm', 'finance', 'point_of_interest', 'establishment']",19.4368443,-100.3583411,Michoacán
OPERATIONAL,"Morelos 17, Centro, 61420 Tuxpan, Mich., Mexico",BBVA,ChIJ8ah0LT-30oURCaY-BcWHvKU,4.2,"['bank', 'atm', 'finance', 'point_of_interest', 'establishment']",19.5673447,-100.4645738,Michoacán
OPERATIONAL,"José María Morelos 12, Centro, 61060 Tlalpujahua de Rayón, Mich., Mexico",BBVA,ChIJpUOz-NTo0oURWoCOiCJXWbw,3.0,"['bank', 'atm', 'finance', 'point_of_interest', 'establishment']",19.8046313,-100.1730833,Michoacán
OPERATIONAL,"Av Emilio Carranza 7, Centro, 60000 Uruapan, Mich., Mexico",BBVA BANCOMER URUAPAN 20 NOVEMBER,ChIJRx1m63PiLYQREadRG0TeA1U,3.1,"['bank', 'atm', 'finance', 'point_of_interest', 'establishment']",19.4212233,-102.0650682,Michoacán
OPERATIONAL,"Av Hidalgo 12, Centro, 58930 Zinapecuaro de Figueroa, Mich., Mexico",BBVA,ChIJr9OZAqElLYQRMu52Y9NiFmY,4.3,"['bank', 'atm', 'finance', 'point_of_interest', 'establishment']",19.8599709,-100.8259318,Michoacán
OPERATIONAL,"Benito Mendoza 23, Centro, 61600 Pátzcuaro, Mich., Mexico",BBVA Patzcuaro,ChIJj6lWt4SWLYQRx00O0GvicRM,4.4,"['bank', 'atm', 'finance', 'point_of_interest', 'establishment']",19.5150398,-101.6094227,Michoacán
OPERATIONAL,"Morelos Sur 250, Centro, 59600 Zamora de Hidalgo, Mich., Mexico",BBVA Bancomer Center Zamora,ChIJC6xqec-ILoQRETX54HTnCQA,4.3,"['bank', 'atm', 'finance', 'point_of_interest', 'establishment']",19.9846335,-102.2863057,Michoacán
OPERATIONAL,"Portal Guerrero 85, Centro, 58760 Purépero de Echáiz, Mich., Mexico",Bbva Bancomer,ChIJLWG2psjULYQRnV7URYxHxsE,3.0,"['bank', 'atm', 'finance', 'point_of_interest', 'establishment']",19.9099111,-102.0080255,Michoacán
OPERATIONAL,"Portal Hidalgo 9, Centro, 59230 Tanhuato de Guerrero, Mich., Mexico",BBVA,ChIJxazCPvK9LoQRY_ez8WL_tX0,2.0,"['bank', 'atm', 'finance', 'point_of_interest', 'establishment']",20.283886,-102.3278856,Michoacán
OPERATIONAL,"Calle de Bucareli 935, Vasco de Quiroga, 58230 Morelia, Mich., Mexico",BBVA Bancomer Basque Quiroga,ChIJ_5mzugUOLYQR4mcssyBCvpY,3.4,"['bank', 'atm', 'finance', 'point_of_interest', 'establishment']",19.7027084,-101.1713016,Michoacán
OPERATIONAL,"Calle Esteban Vaca Calderón SN, Centro, 60600 Apatzingán de la Constitución, Mich., Mexico",BBVA Apatzingán Sotero,ChIJQb8hRGThMYQRHjp9Zhdyqe0,3.9,"['bank', 'atm', 'finance', 'point_of_interest', 'establishment']",19.0865461,-102.3535493,Michoacán
OPERATIONAL,"Venustiano Carranza 2, Col del Centro, 61940 Huetamo de Núñez, Mich., Mexico",BBVA,ChIJl3NUZnvcMoQRGTbOd_OQvss,3.0,"['bank', 'atm', 'finance', 'point_of_interest', 'establishment']",18.6254166,-100.8999544,Michoacán
OPERATIONAL,"Melchor Ocampo 5, Centro, 58820 Huandacareo, Mich., Mexico",BBVA,ChIJs6JOPD7-LIQRlLCrl6SHX-k,3.8,"['bank', 'atm', 'finance', 'point_of_interest', 'establishment']",19.9890492,-101.2761649,Michoacán
OPERATIONAL,"Av Solidaridad No. 350, Félix Ireta, 58070 Morelia, Mich., Mexico",BBVA,ChIJE0d-W94NLYQRv2CCg4kkMNQ,2.2,"['bank', 'atm', 'finance', 'point_of_interest', 'establishment']",19.6881817,-101.1866897,Michoacán
OPERATIONAL,"Blvd. Industrial 1241, Gral Guerrero, Vicente Guerrero, 60120 Uruapan, Mich., Mexico",BBVA,ChIJ0fnB0EfiLYQRfCp-SwZZPBg,3.6,"['bank', 'atm', 'finance', 'point_of_interest', 'establishment']",19.4239842,-102.037978,Michoacán
OPERATIONAL,"Morelos 2, Centro, 58600 Zacapu, Mich., Mexico",BBVA Bancomer HOME OFNA,ChIJlSQNATbJLYQR8Dp0mtQFb0w,2.7,"['bank', 'atm', 'finance', 'point_of_interest', 'establishment']",19.8184878,-101.7917995,Michoacán
OPERATIONAL,"Lázaro Cárdenas Norte 9, Centro, 58900 Santa Ana Maya, Mich., Mexico",BBVA,ChIJywWy6zXgLIQR8rguQ04qnB4,4.1,"['bank', 'atm', 'finance', 'point_of_interest', 'establishment']",20.0081472,-101.0214436,Michoacán
OPERATIONAL,"José María Morelos 1001, Las Palmas, 62050 Cuernavaca, Mor., Mexico",BBVA Plaza Palmas,ChIJ1SVopwHfzYURyfkrgsVh7Po,3.5,"['bank', 'atm', 'finance', 'point_of_interest', 'establishment']",18.9067622,-99.23186460000001,Morelos
OPERATIONAL,"Matamoros no. 1, Cuernavaca Centro, Centro, 62000 Cuernavaca, Mor., Mexico",BBVA Cuernavaca Centro,ChIJr69JaE3ezYURgE-rLsYulIY,3.5,"['bank', 'atm', 'finance', 'point_of_interest', 'establishment']",18.923192,-99.2358852,Morelos
OPERATIONAL,"Calle 23 Este Mz.12, Civac, 62500 Jiutepec, Mor., Mexico",BBVA Jiutepec,ChIJ3YHjs591zoURjffWJ2grhNA,3.2,"['bank', 'atm', 'finance', 'point_of_interest', 'establishment']",18.9149645,-99.165364,Morelos
OPERATIONAL,"Av Insurgentes 775, Cuautlixco, 62749, Manantiales, 62746 Cuautla, Mor., Mexico",BBVA,ChIJY2eWZOBuzoURH7og_OvUD4s,3.9,"['bank', 'atm', 'finance', 'point_of_interest', 'establishment']",18.832043,-98.9473407,Morelos
OPERATIONAL,"Padre Samano 1, Centro, 62740 Cuautla, Mor., Mexico",BBVA,ChIJieAowBBvzoURwxoqAFbLiwU,3.0,"['bank', 'atm', 'finance', 'point_of_interest', 'establishment']",18.8164281,-98.9534513,Morelos
OPERATIONAL,"Cuernavaca-Cuautla, Pedregal de las Fuentes, 62573 Jiutepec, Mor., Mexico",BBVA,ChIJQ2XjC751zoURQWw4wzJOFD8,3.1,"['bank', 'atm', 'finance', 'point_of_interest', 'establishment']",18.8871961,-99.16207109999999,Morelos
OPERATIONAL,"CARR. FED. MEXICO ACAPULCO KM 85 +200, Centro, 62580 Temixco, Mor., Mexico",BBVA Temixco,ChIJN2qdOd3YzYURX8cpC9m5hNI,3.1,"['bank', 'atm', 'finance', 'point_of_interest', 'establishment']",18.8417651,-99.2237511,Morelos
OPERATIONAL,"Av. Domingo Diez 1003, DEL Empleado, 62250 Cuernavaca, Mor., Mexico",BBVA,ChIJi4gjcyvezYURaqfi6XSes0E,3.1,"['bank', 'atm', 'finance', 'point_of_interest', 'establishment']",18.9471739,-99.23531349999999,Morelos
OPERATIONAL,"Allende 1, Centro, 62730 Yautepec de Zaragoza, Mor., Mexico",BBVA,ChIJlYLSrc1zzoURrPVRnT5dKnU,2.7,"['bank', 'atm', 'finance', 'point_of_interest', 'establishment']",18.8849934,-99.0558133,Morelos
OPERATIONAL,"Av. Manuel Altamirano 102, Centro, 62900 Jojutla de Juárez, Mor., Mexico",BBVA,ChIJLeLR2JF_zoURPyFiYOC-85Q,2.6,"['bank', 'atm', 'finance', 'point_of_interest', 'establishment']",18.6156621,-99.17807169999999,Morelos
OPERATIONAL,"Av. Cuauhtémoc 100, Cantarranas, 62448 Cuernavaca, Mor., Mexico",BBVA Cuauhtémoc,ChIJqwrS8qTfzYURkg2fF6fqoak,2.5,"['bank', 'atm', 'finance', 'point_of_interest', 'establishment']",18.9203093,-99.21907209999999,Morelos
OPERATIONAL,"Av Vicente Guerrero 110, Lomas de la Selva, 62270 Cuernavaca, Mor., Mexico",BBVA,ChIJRz8eGsrfzYURPOqqQEsTa3Q,3.0,"['bank', 'atm', 'finance', 'point_of_interest', 'establishment']",18.934552,-99.2284674,Morelos
OPERATIONAL,"Blvd. Paseo Cuauhnáhuac Mz 1, Paraiso, 62550 Cuernavaca, Mor., Mexico",BBVA Jiutepec Cuahunahuac Civac,ChIJMWEVaoN1zoURXBGajMlXykc,3.6,"['bank', 'atm', 'finance', 'point_of_interest', 'establishment']",18.8984814,-99.1630875,Morelos
OPERATIONAL,"Av. Ignacio Zaragoza, Centro, 62520 Tepoztlán, Mor., Mexico",BBVA,ChIJm4dszaEMzoUROuGPHGXSuhE,4.7,"['bank', 'atm', 'finance', 'point_of_interest', 'establishment']",18.9865409,-99.0985448,Morelos
OPERATIONAL,"Avenida Universidad 200, Santa María Ahuacatitlán, 62100 Cuernavaca, Mor., Mexico",BBVA Universidad,ChIJtwBxEZLgzYURA9y5rrG58uU,3.9,"['bank', 'atm', 'finance', 'point_of_interest', 'establishment']",18.9753166,-99.2461246,Morelos
OPERATIONAL,"Av. Plan de Ayala 2010, Chapultepec, 62450 Cuernavaca, Mor., Mexico",BBVA Plan De Ayala,ChIJ9w3W25nfzYURSDrPnAh7fQw,3.5,"['bank', 'atm', 'finance', 'point_of_interest', 'establishment']",18.9228231,-99.2084892,Morelos
OPERATIONAL,"Av. Constitución 38 Local B-2 col, Campo Nuevo, 62270 Emiliano Zapata, Mor., Mexico",BBVA Bancomer,ChIJv0LFs_d3zoURpRLqrfrlE-o,1.7,"['bank', 'atm', 'finance', 'point_of_interest', 'establishment']",18.831515,-99.18721099999999,Morelos
OPERATIONAL,"Av Río Mayo 1209, Vista Hermosa, 62290 Cuernavaca, Mor., Mexico",BBVA Rio Mayo,ChIJF7jzLuvfzYUROUvc7BWkYH4,2.6,"['bank', 'atm', 'finance', 'point_of_interest', 'establishment']",18.9351567,-99.2077284,Morelos
OPERATIONAL,"Plazuela La Libertad 28, Yacapitztla, Centro, 62820 Yecapixtla, Mor., Mexico",BBVA Yecapixtla,ChIJwUrpRSdqzoURCt-MZcJS9a0,2.1,"['bank', 'atm', 'finance', 'point_of_interest', 'establishment']",18.8820833,-98.86458599999999,Morelos
OPERATIONAL,"Calle E-11, Los Atarianes, 62450 Jiutepec, Mor., Mexico",Bbva Bancomer,ChIJP0GgYXrfzYURI1aMJo471lc,1.5,"['bank', 'finance', 'point_of_interest', 'establishment']",18.908149,-99.18023149999999,Morelos
OPERATIONAL,"Av México Nte 123, Centro, 63000 Tepic, Nay., Mexico",BBVA,ChIJrRbh2AE3J4QRNTLYnlYgv7U,3.7,"['bank', 'atm', 'finance', 'point_of_interest', 'establishment']",21.5106411,-104.8924257,Nayarit
OPERATIONAL,"Ejido 26, Centro, 63550 Villa Hidalgo, Nay., Mexico",BBVA,ChIJ9Zfe_WilIIQRPlO0u648Sb0,5.0,"['bank', 'atm', 'finance', 'point_of_interest', 'establishment']",21.7419041,-105.2340854,Nayarit
OPERATIONAL,"Querétaro Sur 79 Norte, Centro, 63000 Tepic, Nay., Mexico",BBVA,ChIJd5xY4v42J4QR-93WN7MaO0Q,4.5,"['bank', 'atm', 'finance', 'point_of_interest', 'establishment']",21.5083192,-104.897104,Nayarit
OPERATIONAL,"Calle Constitución 502, ZONA A, Mololoa, 63000 Tepic, Nay., Mexico",BBVA,ChIJ30zbWao3J4QRgd36VQdPu-0,3.8,"['bank', 'atm', 'finance', 'point_of_interest', 'establishment']",21.5169509,-104.8894934,Nayarit
OPERATIONAL,"Av Insurgentes 31, Capitán Orozco Ortega, 63000 Tepic, Nay., Mexico",BBVA,ChIJZSKuZBg3J4QRMb1fLabZ5K0,2.8,"['bank', 'atm', 'finance', 'point_of_interest', 'establishment']",21.4946601,-104.882412,Nayarit
OPERATIONAL,"Blvd. Tepic-Xalisco Sur 1981, San Antonio, 63159 Tepic, Nay., Mexico",BBVA,ChIJicQTEig3J4QRC_b1RESZ3Ws,3.4,"['bank', 'atm', 'finance', 'point_of_interest', 'establishment']",21.478946,-104.8912076,Nayarit
OPERATIONAL,"Av. Tecnológico 3653, Nayarabastos, 63173 Tepic, Nay., Mexico",BBVA,ChIJwTSvpk03J4QRKj7ezAJ6QXw,3.0,"['bank', 'atm', 'finance', 'point_of_interest', 'establishment']",21.4742323,-104.8582826,Nayarit
OPERATIONAL,"Francisco I. Madero Nte., Centro, 63200 Tuxpan, Nay., Mexico",BBVA,ChIJT9rr8DIcnoYReaI0EEsDR28,4.1,"['bank', 'atm', 'finance', 'point_of_interest', 'establishment']",21.9449396,-105.2988754,Nayarit
OPERATIONAL,"Av Aguamilpa 1060, 63173 Tepic, Nay., Mexico",BBVA Bancomer,ChIJPTrvCe85J4QRrbMrTQ-1MwM,4.5,"['bank', 'atm', 'finance', 'point_of_interest', 'establishment']",21.4884636,-104.8321463,Nayarit
OPERATIONAL,"AV, 20 de Noviembre 46 OTE, Centro, 63300 Santiago Ixcuintla, Nay., Mexico",BBVA,ChIJfTC9cE2vIIQRtkYFs22Vw04,4.2,"['bank', 'atm', 'finance', 'point_of_interest', 'establishment']",21.808405,-105.2066929,Nayarit
OPERATIONAL,"Veracruz Sur 21 SUR, Centro, 63600 Tepic, Nay., Mexico",BBVA,ChIJPxTG-zMCnoYRw8MtrZGxyW0,3.2,"['bank', 'atm', 'finance', 'point_of_interest', 'establishment']",21.5084584,-104.8936493,Nayarit
OPERATIONAL,"Av Insurgentes 1171, Capitán Orozco Ortega, 63000 Tepic, Nay., Mexico",BBVA Bancomer Las Aves,ChIJ4w0kTc03J4QRj-rtd7mT0kM,2.0,"['bank', 'finance', 'point_of_interest', 'establishment']",21.4948265,-104.8824016,Nayarit
OPERATIONAL,"Calle 12 de Octubre 195, Menchaca, 63000 Tepic, Nay., Mexico",BBVA Bancomer,ChIJJQkZ6Bw3J4QRbcJECAhPGtE,0.0,"['atm', 'finance', 'point_of_interest', 'establishment']",21.5021412,-104.8896601,Nayarit
OPERATIONAL,"Av Insurgentes 31, Capitán Orozco Ortega, 63000 Tepic, Nay., Mexico",BBVA Bancomer Plaza Alica,ChIJZSKuZBg3J4QRjHLuzl5jRKM,1.0,"['atm', 'finance', 'point_of_interest', 'establishment']",21.4946617,-104.8823876,Nayarit
OPERATIONAL,"Blvrd Luis Donaldo Colosio 680, Subcentro Urbano, 63175 Tepic, Nay., Mexico",Bancomer,ChIJMSeVskE3J4QR8HP3aB-XnbI,4.0,"['bank', 'finance', 'point_of_interest', 'establishment']",21.4914906,-104.8657796,Nayarit
OPERATIONAL,"Playa Hermosa, Centro, 63740 San Blas, Nayarit, Mexico",ATM / CASHIER BANCOMER CITY SAN BLAS,ChIJlf2nnJa4IIQRuBaa2UDUdm8,0.0,"['atm', 'finance', 'point_of_interest', 'establishment']",21.5418,-105.286,Nayarit
OPERATIONAL,"México 50 SUR, Atenas, Centro, 63715 Las Varas, Nay., Mexico",BBVA,ChIJQ8OyFwXWIIQRboioLRCLBbI,2.0,"['bank', 'atm', 'finance', 'point_of_interest', 'establishment']",21.1765933,-105.1356422,Nayarit
OPERATIONAL,"Hidalgo 52, Barrio de Chila, 63700 Compostela, Nay., Mexico",BBVA,ChIJiedDxzEpJ4QRFDVIPA1V-OQ,0.0,"['bank', 'atm', 'finance', 'point_of_interest', 'establishment']",21.2362311,-104.9007293,Nayarit
OPERATIONAL,"Guanajuato Sur 25, Centro, 63440 Tecuala, Nay., Mexico",BBVA,ChIJt9bTYwFDnoYRkBxfUfqDWJY,4.5,"['bank', 'atm', 'finance', 'point_of_interest', 'establishment']",22.3966054,-105.4576735,Nayarit
OPERATIONAL,"Calz. De La Cruz 158, Fray Junípero Serra, 63169 Tepic, Nay., Mexico",Atm/Cajero BBVA Serv De Salud Nayarit970,ChIJXT0qYOM2J4QRlg0nYjcWv3g,3.7,"['atm', 'finance', 'point_of_interest', 'establishment']",21.5007,-104.898,Nayarit
OPERATIONAL,"Av Nuevo León 154, Hipódromo, Cuauhtémoc, 06100 Ciudad de México, CDMX, Mexico",BBVA,ChIJGdHQ7kH_0YURgVYDEhJh5NE,2.6,"['bank', 'atm', 'finance', 'point_of_interest', 'establishment']",19.4089649,-99.1721474,Nuevo León
OPERATIONAL,"Av. Insurgentes Sur 535, código 2, Escandón I Secc, Cuauhtémoc, 11800 Ciudad de México, CDMX, Mexico",BBVA Insurgentes,ChIJW_Y4hGz_0YUR8IlVygUdOh8,3.2,"['bank', 'atm', 'finance', 'point_of_interest', 'establishment']",19.4016739,-99.170221,Nuevo León
OPERATIONAL,"Av Heroico Colegio Militar 325, Reforma, 68050 Oaxaca de Juárez, Oax., Mexico",BBVA,ChIJ46gEPi4ix4URpWaHMtaLvr4,3.0,"['bank', 'atm', 'finance', 'point_of_interest', 'establishment']",17.0741015,-96.7133201,Oaxaca
OPERATIONAL,"Carr. Internacional 1708, Sta Rosa, 68010 Oaxaca de Juárez, Oax., Mexico",BBVA Oaxaca Brenamiel,ChIJlzvqfVgfx4URyPg8x-b2ZkY,4.0,"['bank', 'atm', 'finance', 'point_of_interest', 'establishment']",17.098409,-96.7485629,Oaxaca
OPERATIONAL,"Periférico 709, Zona Lunes Feb 09, Central de Abasto, 68157 Oaxaca de Juárez, Oax., Mexico",Atm/Cajero BBVA Suc Periferico563,ChIJbZfBS2oix4URhnSAJHAU-Ts,3.1,"['atm', 'finance', 'point_of_interest', 'establishment']",17.0565,-96.73039999999999,Oaxaca
OPERATIONAL,"Calle de Manuel García Vigil 120, RUTA INDEPENDENCIA, Centro, 68000 Oaxaca de Juárez, Oax., Mexico",BBVA Bancomer Oaxaca Principal,ChIJgb7WCT8ix4URqqvAVziaYv8,3.2,"['bank', 'atm', 'finance', 'point_of_interest', 'establishment']",17.0627432,-96.7250655,Oaxaca
OPERATIONAL,"Francisco I. Madero 1302, Centro, 68000 Oaxaca de Juárez, Oax., Mexico",BBVA Bancomer,ChIJvyygjgMix4URO8ViJHtxR9w,3.0,"['bank', 'atm', 'finance', 'point_of_interest', 'establishment']",17.0783248,-96.742364,Oaxaca
OPERATIONAL,"Calz. Porfirio Díaz 256, Reforma, 68050 Oaxaca de Juárez, Oax., Mexico",BBVA Bancomer Square Mazari Oaxaca,ChIJ23j62CUix4URva6en5eApR4,3.5,"['bank', 'atm', 'finance', 'point_of_interest', 'establishment']",17.0783707,-96.7192762,Oaxaca
OPERATIONAL,"Calle Portal Hidalgo 7, Centro, 71510 Ocotlán de Morelos, Oax., Mexico",BBVA Ocotlan Oaxaca,ChIJQ1KTTqVAx4UR2sSCEwLJqzE,4.0,"['bank', 'atm', 'finance', 'point_of_interest', 'establishment']",16.792878,-96.67431739999999,Oaxaca
OPERATIONAL,"Calle de Manuel García Vigil 120, RUTA INDEPENDENCIA, Centro, 68000 Oaxaca de Juárez, Oax., Mexico",ATM / CASHIER BANCOMER SUC MAIN OAXACA,ChIJgb7WCT8ix4URoNtEnsoz4oo,4.8,"['bank', 'atm', 'finance', 'point_of_interest', 'establishment']",17.0628,-96.72529999999999,Oaxaca
OPERATIONAL,"Miguel Cabrera 103, OAX_RE_BENITO JUAREZ, Centro, 68000 Oaxaca de Juárez, Oax., Mexico",BBVA Bancomer MARKET,ChIJp350TEAix4URjQbQ355bpJM,4.0,"['bank', 'atm', 'finance', 'point_of_interest', 'establishment']",17.0579757,-96.72627779999999,Oaxaca
OPERATIONAL,"Avenida Universidad 139, Universidad, Exhacienda Candiani, 68130 Oaxaca de Juárez, Oax., Mexico",BBVA Bancomer UNIVERSITY,ChIJ5YCMTf8ix4URLRwO3khkmgM,3.7,"['bank', 'atm', 'finance', 'point_of_interest', 'establishment']",17.0369978,-96.71179459999999,Oaxaca
OPERATIONAL,"Periférico 709, Zona Lunes Feb 09, Centro, 68000 Oaxaca de Juárez, Oax., Mexico",BBVA Oaxaca Periferico,ChIJeWRE-Xojx4URsi_eoSl-6O8,0.0,"['bank', 'atm', 'finance', 'point_of_interest', 'establishment']",17.0564918,-96.73035379999999,Oaxaca
OPERATIONAL,"Calz FCO, Francisco I. Madero 1332, Ex-Marquezado, 68030 Oaxaca de Juárez, Oax., Mexico",BBVA,ChIJvzgikgMix4URZ95GR1nJrm0,3.3,"['bank', 'atm', 'finance', 'point_of_interest', 'establishment']",17.0786358,-96.7423251,Oaxaca
OPERATIONAL,"Internacional 1800, Nueva Sta Lucia, 71228 Santa Lucía del Camino, Oax., Mexico",ATM BBVA Bancomer,ChIJGZVv7cUjx4URGV75UOkETk4,2.5,"['atm', 'finance', 'point_of_interest', 'establishment']",17.0682443,-96.6946389,Oaxaca
OPERATIONAL,"Heroica Esc, Heroica Escuela Naval Militar 1201, Reforma, 68050 Oaxaca de Juárez, Oax., Mexico",Atm/Cajero BBVA Chedraui Oaxaca Reform,ChIJMwSSjywix4URIQ8OVp-aGuA,1.0,"['atm', 'finance', 'point_of_interest', 'establishment']",17.0782,-96.7087,Oaxaca
OPERATIONAL,"Jorge L. Tamayo Castellanos 500, Universidad, Hacienda de Antequera, 68000 Oaxaca de Juárez, Oax., Mexico",Atm/Cajero BBVA Soriana Oaxaca,ChIJKyeyPVcix4URzuAQI115WnE,3.0,"['atm', 'finance', 'point_of_interest', 'establishment']",17.0422,-96.71549999999999,Oaxaca
OPERATIONAL,"Periférico 300, Universidad, Articulo 123 Oriente, 68120 Oaxaca de Juárez, Oax., Mexico",Atm/Cajero BBVA Chedraui Oaxaca,ChIJic17f08ix4URk7CXQZasxKo,3.3,"['atm', 'finance', 'point_of_interest', 'establishment']",17.0526462,-96.71700070000001,Oaxaca
OPERATIONAL,"Av Heroico Colegio Militar 1010, Reforma, 68050 Oaxaca de Juárez, Oax., Mexico",Atm/Cajero BBVA Soriana C Militar1611,ChIJG0Is3ysix4URsOlC-Qwkurk,5.0,"['atm', 'finance', 'point_of_interest', 'establishment']",17.0807,-96.7118,Oaxaca
OPERATIONAL,"Francisco I. Madero, Ex-Marquezado, 68000 Oaxaca de Juárez, Oax., Mexico",BBVA BANCOMER,ChIJfzop1Zgjx4URqEUcG0i0T8M,0.0,"['bank', 'finance', 'point_of_interest', 'establishment']",17.078389,-96.7423207,Oaxaca
OPERATIONAL,"Miguel Cabrera 103, OAX_RE_BENITO JUAREZ, Centro, 68000 Oaxaca de Juárez, Oax., Mexico",Atm/Cajero BBVA Suc Mercado982,ChIJp350TEAix4URVjb7_X6fcNo,2.7,"['atm', 'finance', 'point_of_interest', 'establishment']",17.0580043,-96.7263335,Oaxaca
OPERATIONAL,"Av 25 Pte no. 301, Insurgentes Chula Vista, 72420 Puebla, Pue., Mexico",BBVA Bancomer,ChIJb1CQEMTAz4UR8eKHcm8A7Mk,3.1,"['atm', 'finance', 'point_of_interest', 'establishment']",19.0359336,-98.205969,Puebla
OPERATIONAL,"Reserva Territorial Atlixcáyotl, Bosque de Angelopolis, 72810 Puebla, Mexico",Bancomer,ChIJ_4U0kUHHz4URDhM7X4iGhX8,4.1,"['bank', 'atm', 'finance', 'point_of_interest', 'establishment']",19.0225998,-98.24126919999999,Puebla
OPERATIONAL,"Blvrd Héroes del 5 de Mayo 2510, Ladrillera de Benítez, 72530 Puebla, Pue., Mexico",BBVA Bancomer May 5,ChIJU9Y5gurAz4UR3BaQBpUetjg,3.4,"['bank', 'atm', 'finance', 'point_of_interest', 'establishment']",19.0320845,-98.19934219999999,Puebla
OPERATIONAL,"Av. de la Reforma 113, Centro, 72000 Puebla, Pue., Mexico",Cajero BBVA Suc Puebla Principal,ChIJfZrufufAz4URY4SCnRDUQN4,2.8,"['atm', 'finance', 'point_of_interest', 'establishment']",19.0446,-98.19919999999999,Puebla
OPERATIONAL,"Calle 4 Nte, Centro, 72000 Puebla, Pue., Mexico",ATM / CASHIER BANCOMER SUC PUEBLA STRONG,ChIJD2B46OLAz4URmARhbQbfOQo,3.4,"['atm', 'finance', 'point_of_interest', 'establishment']",19.0514,-98.19,Puebla
OPERATIONAL,"Calle, Av. 43 Ote. 201, 72534 Puebla, Pue., Mexico",BBVA,ChIJN5eq5rjAz4URikAEMeL0EfI,2.9,"['bank', 'atm', 'finance', 'point_of_interest', 'establishment']",19.0266939,-98.2066352,Puebla
OPERATIONAL,"Teziutlan Sur 45, La Paz, 72160 Puebla, Pue., Mexico",BBVA,ChIJmQL7FNrGz4URv9aBBoLDBrM,3.3,"['bank', 'atm', 'finance', 'point_of_interest', 'establishment']",19.0588907,-98.2312314,Puebla
OPERATIONAL,"Av. de la Reforma 113, Centro, 72000 Puebla, Pue., Mexico",BBVA Bancomer Puebla Principal,ChIJfZrufufAz4URuopwQ7-o5y4,3.9,"['bank', 'atm', 'finance', 'point_of_interest', 'establishment']",19.0444869,-98.199214,Puebla
OPERATIONAL,"Calle 5 Sur 4931, Boulevares, Residencial Boulevares, 72440 Puebla, Pue., Mexico",BBVA BLVD Juan Pablo II,ChIJaZJfv7bAz4URuW8ZzraKXPw,2.6,"['bank', 'atm', 'finance', 'point_of_interest', 'establishment']",19.0241344,-98.2149113,Puebla
OPERATIONAL,"Av. Manuel Espinosa Yglesias 31 Pte. 2901, Benito Juárez, 72420 Puebla, Pue., Mexico",BBVA Puebla 31 Poniente,ChIJD6wZgC7Hz4UR75bbma9R2HY,2.6,"['bank', 'atm', 'finance', 'point_of_interest', 'establishment']",19.0431941,-98.22670240000001,Puebla
OPERATIONAL,"km. 7.5, Carretera Federal Puebla-Tehuacán, El Naranjo, 72990 Puebla, Pue., Mexico",BBVA,ChIJ6RQHS4Xqz4URjygWfP5yOBg,2.8,"['bank', 'atm', 'finance', 'point_of_interest', 'establishment']",19.0450645,-98.1239164,Puebla
OPERATIONAL,"Blvrd Héroes del 5 de Mayo 418, Barrio de Xanenetla, 72290 Puebla, Pue., Mexico",BBVA Bancomer Fuertes Puebla,ChIJD2B46OLAz4UR9ScV6LAPCKc,2.9,"['bank', 'atm', 'finance', 'point_of_interest', 'establishment']",19.0516076,-98.1893489,Puebla
OPERATIONAL,"Av. 14 Ote. 2616 y, Calle 28 Nte, Humboldt Nte., 72370 Puebla, Pue., Mexico",BBVA,ChIJ--C2IvjAz4URlQ-736Zk9gE,4.1,"['bank', 'atm', 'finance', 'point_of_interest', 'establishment']",19.0430764,-98.17884719999999,Puebla
OPERATIONAL,"Av. Juarez 1508, Zona Esmeralda, 72000 Puebla, Pue., Mexico",BBVA,ChIJg2AYX9fAz4URmINO3MPHkoY,2.4,"['bank', 'atm', 'finance', 'point_of_interest', 'establishment']",19.0479449,-98.21057549999999,Puebla
OPERATIONAL,"Calz Zavaleta 3704, Sta Cruz Buenavista, 72170 Puebla, Pue., Mexico",BBVA Bancomer,ChIJafe3_x3Hz4URd-WtaUSX2og,3.2,"['bank', 'atm', 'finance', 'point_of_interest', 'establishment']",19.0508603,-98.2485167,Puebla
OPERATIONAL,"Blvrd Atlixco 3156, Centro Comercial Galería las Animas, 72400 Puebla, Pue., Mexico",BBVA,ChIJ9-obwyXHz4UR1MoI7RzeSDc,3.0,"['bank', 'atm', 'finance', 'point_of_interest', 'establishment']",19.045322,-98.23423439999999,Puebla
OPERATIONAL,"Av, Calle 39 Ote 1402, Mirador, 72540 Puebla, Pue., Mexico",BBVA,ChIJFQvNcJbAz4UR3DE8JgEFlzw,3.2,"['bank', 'atm', 'finance', 'point_of_interest', 'establishment']",19.0242524,-98.19774059999999,Puebla
OPERATIONAL,"Av 2 Ote 1607, La Luz, 72270 Puebla, Pue., Mexico",BBVA,ChIJuz9CMPDAz4UR3auFVEzmuuU,3.9,"['bank', 'atm', 'finance', 'point_of_interest', 'establishment']",19.0396272,-98.1877476,Puebla
OPERATIONAL,"Blvd. Forjadores de Puebla 1009, Centro, 72760 Puebla, Pue., Mexico",BBVA,ChIJDba6y4zGz4URrSPBue7Bgzk,3.4,"['atm', 'finance', 'point_of_interest', 'establishment']",19.074416,-98.2579812,Puebla
OPERATIONAL,"Av. Juarez 2307, Zona Esmeralda, 72400 Puebla, Pue., Mexico",BBVA Puebla Esmeralda,ChIJwS1OwdXAz4URmkx9aJsFXo8,2.9,"['bank', 'atm', 'finance', 'point_of_interest', 'establishment']",19.0505579,-98.2168631,Puebla
OPERATIONAL,"Calle 66 752, Centro, 77200 Felipe Carrillo Puerto, Q.R., Mexico",Atm/Cajero BBVA Ado Chetumal,ChIJC3cKMGF4UI8RS5VULTNR08Y,5.0,"['atm', 'finance', 'point_of_interest', 'establishment']",19.5782845,-88.0464945,Quintana Roo
OPERATIONAL,"Lazaro Cardenas, Cecilio Chi, 77230 Felipe Carrillo Puerto, Q.R., Mexico",Atm/Cajero BBVA Chedraui Carrillo Pto214,ChIJE8Z9y4p4UI8R_7RctjKATgc,4.0,"['atm', 'finance', 'point_of_interest', 'establishment']",19.5819,-88.0525,Quintana Roo
OPERATIONAL,"Av. Coba, Centro, 77760 Tulum, Q.R., Mexico",BBVA Bancomer,ChIJzRcdrVfRT48RiJR70u7AZZ0,1.8,"['bank', 'finance', 'point_of_interest', 'establishment']",20.2149195,-87.452863,Quintana Roo
OPERATIONAL,"Av Álvaro Obregón 222, Centro, 77000 Chetumal, Q.R., Mexico",BBVA,ChIJS4rSHmyjW48R9hx21vsHefI,3.9,"['bank', 'atm', 'finance', 'point_of_interest', 'establishment']",18.4966954,-88.29849,Quintana Roo
OPERATIONAL,"CAN CUN, AV Coba Carretera Federal-tulum-rivera SN, 77780 Tulum, Q.R., Mexico",BBVA Tulum Riviera Maya,ChIJVTGzRN_TT48RECtOjA5Kgos,1.0,"['bank', 'atm', 'finance', 'point_of_interest', 'establishment']",20.2146787,-87.4528109,Quintana Roo
OPERATIONAL,"Avenida Benito Juárez, 25 Avenida Nte &, Centro, 77710 Playa del Carmen, Q.R., Mexico",BBVA,ChIJVZY_XzxDTo8RBwqqmzU33Po,3.2,"['bank', 'atm', 'finance', 'point_of_interest', 'establishment']",20.6249897,-87.0787404,Quintana Roo
OPERATIONAL,"Av Tulum 20, Centro, 77500 Cancún, Q.R., Mexico",BBVA Bancomer Cancun Oficina Principal,ChIJDbbRnAAsTI8RltHSVmJlIDU,2.6,"['bank', 'atm', 'finance', 'point_of_interest', 'establishment']",21.1597667,-86.8253391,Quintana Roo
OPERATIONAL,"Av. Lic. Pedro Joaquin Coldwell, Centro, 77600 San Miguel de Cozumel, Q.R., Mexico",BBVA Bank,ChIJJ28VQDNYTo8R2gofSQtXJKc,4.8,"['bank', 'atm', 'finance', 'point_of_interest', 'establishment']",20.5112975,-86.9411805,Quintana Roo
OPERATIONAL,"Carretera Cancún - Tulum, Calle 41 Sur 2100, 77712 Playa del Carmen, Q.R., Mexico",BBVA,ChIJKSD1eAxDTo8Rkn8tpHMk3tI,2.0,"['bank', 'atm', 'finance', 'point_of_interest', 'establishment']",20.6198127,-87.0971338,Quintana Roo
OPERATIONAL,"REGION 14 MZA 34 LOTE 1 AV CONSTITUYENTE ESQ AV. 115 NTE, Av Chemuyil 115, 77712 Playa del Carmen, Q.R., Mexico",BBVA,ChIJfTsM4eJCTo8Rppsar4-gMIA,1.8,"['bank', 'atm', 'finance', 'point_of_interest', 'establishment']",20.6607307,-87.06937309999999,Quintana Roo
OPERATIONAL,"Av. Andrés Quintana Roo 39, 39, 77500 Cancún, Q.R., Mexico",BBVA,ChIJu7wghY4rTI8RSqgDUIm10TI,3.1,"['bank', 'atm', 'finance', 'point_of_interest', 'establishment']",21.1516037,-86.8475644,Quintana Roo
OPERATIONAL,"Edificio Plaza Sol, 5a Avenida Sur 51, Centro, 77600 San Miguel de Cozumel, Q.R., Mexico",BBVA Cozumel Centro,ChIJ45fa-c5ZTo8RmuVpe3zjy5c,2.2,"['bank', 'atm', 'finance', 'point_of_interest', 'establishment']",20.5098499,-86.94906569999999,Quintana Roo
OPERATIONAL,"Avenida Insurgentes Km 5.25 INFONAVIT, Emancipación, 77084 Chetumal, Q.R., Mexico",BBVA Las Americas Chetumal,ChIJJ0HHdaukW48RBYCyTvOdaL8,3.1,"['bank', 'atm', 'finance', 'point_of_interest', 'establishment']",18.5195495,-88.3215297,Quintana Roo
OPERATIONAL,"Av Andres Q Roo, Maravilla, San Miguel de Cozumel, Q.R., Mexico",Atm/Cajero BBVA Bodega Aurrera Cozumel776,ChIJh0Oq8n9XTo8R1A7xW8Bhohg,3.0,"['atm', 'finance', 'point_of_interest', 'establishment']",20.4929054,-86.9449758,Quintana Roo
OPERATIONAL,"Av. Benito Juárez, Playa del Carmen, Q.R., Mexico",Atm/Cajero BBVA Hotel Bahia Principe1560,ChIJfeF99aszTo8RLlUB8oATt1M,2.6,"['atm', 'finance', 'point_of_interest', 'establishment']",20.363568,-87.33752129999999,Quintana Roo
OPERATIONAL,"Carr. Cancún - Tulum sn, 77780 Tulum, Q.R., Mexico",Atm/Cajero BBVA Suc Riviera Tulum591,ChIJIVacrVfRT48R10I7J-U9D78,3.0,"['atm', 'finance', 'point_of_interest', 'establishment']",20.214866,-87.4528461,Quintana Roo
OPERATIONAL,"Xel-ha 63, 28, 77503 Cancún, Q.R., Mexico",BBVA,ChIJu_wExwksTI8RkG9KgUOawmQ,3.3,"['bank', 'atm', 'finance', 'point_of_interest', 'establishment']",21.1609931,-86.8354378,Quintana Roo
OPERATIONAL,"Felipe Carrillo Puerto - Jose Maria Morelos 35, Centro, 77890 José María Morelos, Q.R., Mexico",Atm/Cajero BBVA Super Willys Morelos367,ChIJ9TDVvQCuUI8RnQEaRRvzYdQ,4.0,"['atm', 'finance', 'point_of_interest', 'establishment']",19.7499,-88.71,Quintana Roo
OPERATIONAL,"Av Insurgentes 41, Reforma, 77018 Chetumal, Q.R., Mexico",BBVA,ChIJR7YSX3-kW48RmiNf_EeCB54,4.0,"['bank', 'atm', 'finance', 'point_of_interest', 'establishment']",18.5150215,-88.2812696,Quintana Roo
OPERATIONAL,"Bahía Xcacel, Puerto Ventura, Solidaridad, 77782 Playa del Carmen, Q.R., Mexico",BBVA Bancomer,ChIJ8Qf36gE4To8RX1IuiF-V1s0,0.0,"['atm', 'finance', 'point_of_interest', 'establishment']",20.500812,-87.2258619,Quintana Roo
OPERATIONAL,"Av Santos Degollado S/N, Tangamanga, 78269 San Luis, S.L.P., Mexico",BBVA San Luis Potosi Gigante,ChIJjQPuDreYKoQRl38Qn8bmzoM,3.5,"['bank', 'atm', 'finance', 'point_of_interest', 'establishment']",22.141186,-100.9996779,San Luis Potosí
OPERATIONAL,"Av Himno Nacional 705, Las Águilas, 78260 San Luis, S.L.P., Mexico",BBVA San Luis Potosi Himno Nacional,ChIJV7vH7MuYKoQRuBeEj1vXETM,3.2,"['bank', 'atm', 'finance', 'point_of_interest', 'establishment']",22.146116,-101.0081241,San Luis Potosí
OPERATIONAL,"Vasco de Quiroga 144, Industrial Aviacion 1ra Secc, 78140 San Luis, S.L.P., Mexico",BBVA Bancomer Aviación,ChIJj27-3UGfKoQR6QzC9YceXQM,3.0,"['bank', 'atm', 'finance', 'point_of_interest', 'establishment']",22.1742664,-100.9991781,San Luis Potosí
OPERATIONAL,"Av Venustiano Carranza 703, centro, 78000 San Luis, S.L.P., Mexico",BBVA San Luis Potosi Carranza,ChIJxULbv6qYKoQRYxhnhnufXuQ,3.7,"['bank', 'atm', 'finance', 'point_of_interest', 'establishment']",22.1508391,-100.9823239,San Luis Potosí
OPERATIONAL,"Julián de Los Reyes 255, Centro, 78000 San Luis, S.L.P., Mexico",BBVA San Luis Potosi Sede,ChIJw3LTbf-hKoQRT4vKwo7kAGI,3.7,"['bank', 'atm', 'finance', 'point_of_interest', 'establishment']",22.1537692,-100.9770423,San Luis Potosí
OPERATIONAL,"Av. Ricardo Basilio Anaya, Ricardo B. Anaya 1ra Secc, 78390 San Luis, S.L.P., Mexico",BBVA San Luis Potosi Abastos,ChIJB7fQmcWjKoQRic_8a5fu7e8,3.4,"['bank', 'atm', 'finance', 'point_of_interest', 'establishment']",22.1408355,-100.9239386,San Luis Potosí
OPERATIONAL,"Av Nereo Rodríguez Barragán 450, Col del Valle, 78250 San Luis, S.L.P., Mexico",BBVA,ChIJ-fCtBkqfKoQRTOZmFAp8UzA,4.1,"['bank', 'atm', 'finance', 'point_of_interest', 'establishment']",22.1548242,-101.0032927,San Luis Potosí
OPERATIONAL,"Av de Las Torres 113, El Paseo, 78320 San Luis, S.L.P., Mexico",BBVA,ChIJF2GL1yGiKoQRMt4mqxKryJw,2.7,"['bank', 'atm', 'finance', 'point_of_interest', 'establishment']",22.1501868,-100.9580052,San Luis Potosí
OPERATIONAL,"Calle Blas Escontria 1001, Soledad de Graciano Sanchez, 78430 Soledad de Graciano Sánchez, S.L.P., Mexico",BBVA San Luis Potosi Soledad,ChIJLSvXAKehKoQRBPSDHUSJGXE,3.3,"['bank', 'atm', 'finance', 'point_of_interest', 'establishment']",22.1827644,-100.951164,San Luis Potosí
OPERATIONAL,"Cordillera de los Alpes 1010, Las Haciendas, 78218 San Luis, S.L.P., Mexico",BBVA La Gran Loma,ChIJQXGnQCSZKoQRlwF6ptzNYeE,1.9,"['bank', 'atm', 'finance', 'point_of_interest', 'establishment']",22.1328981,-101.0328857,San Luis Potosí
OPERATIONAL,"Plaza del Parque, Av. Dr. Manuel Nava 200, 78210 San Luis, Mexico",BBVA,ChIJ-V0fYNKYKoQRdNB8JMqs0Lk,3.4,"['bank', 'atm', 'finance', 'point_of_interest', 'establishment']",22.1469682,-101.0160273,San Luis Potosí
OPERATIONAL,"Av Venustiano Carranza 1190, Tequisquiapan, 78250 San Luis, S.L.P., Mexico",BBVA San Luis Potosi Avenida,ChIJvx_3Q62YKoQRpsCREzhuEgg,3.4,"['bank', 'atm', 'finance', 'point_of_interest', 'establishment']",22.1505335,-100.991431,San Luis Potosí
OPERATIONAL,"Av. Dr. Salvador Nava Martinez 3125, subterraneo, 78294 San Luis, S.L.P., Mexico",BBVA Banca Patrimonial San Luis Potosi,ChIJI31EJYSZKoQRH7QFul7Aiiw,3.5,"['bank', 'atm', 'finance', 'point_of_interest', 'establishment']",22.1374362,-101.0009262,San Luis Potosí
OPERATIONAL,"Av. Dr. Salvador Nava Martinez 405 Fracc, Central, 78399 San Luis, S.L.P., Mexico",BBVA San Luis Potosi Salvador,ChIJxxRg3jyiKoQRYABWNO94Y5M,2.5,"['bank', 'atm', 'finance', 'point_of_interest', 'establishment']",22.1415181,-100.9567179,San Luis Potosí
OPERATIONAL,"Av Benito Juarez 2055, Estrellas de Oriente, 78396 San Luis, S.L.P., Mexico",BBVA Plaza Sendero San Luis Potosi,ChIJg2elxLejKoQR9PZTNHtxTEk,2.5,"['bank', 'atm', 'finance', 'point_of_interest', 'establishment']",22.13105,-100.9243283,San Luis Potosí
OPERATIONAL,"Calle Turquesa 1816, Jardines del Sur, 78399 San Luis, S.L.P., Mexico",BBVA,ChIJ5dUK68KjKoQRNjqdsDiNUr4,4.0,"['bank', 'atm', 'finance', 'point_of_interest', 'establishment']",22.1284699,-100.9358518,San Luis Potosí
OPERATIONAL,"Av. Dr. Salvador Nava Martinez S/N, Tangamanga, 78269 San Luis, S.L.P., Mexico",Atm/Cajero BBVA Com Mex Tangamanga823,ChIJ6Thy57mYKoQRfOH6ZwC7BM8,4.5,"['atm', 'finance', 'point_of_interest', 'establishment']",22.1401122,-101.0008519,San Luis Potosí
OPERATIONAL,"Av.Nereo Rodriguez Barragan 450 Chedrawi, Col del Valle, 68211 San Luis, Mexico",Atm/Cajero BBVA Suc Carrefur Slp1122,ChIJ-fCtBkqfKoQRVlkau74f5Xo,0.0,"['atm', 'finance', 'point_of_interest', 'establishment']",22.1562327,-101.0035169,San Luis Potosí
OPERATIONAL,"Av Venustiano Carranza 1160, Tequis, De Tequisquiapan, 78250 San Luis, S.L.P., Mexico",ATM Bancomer,ChIJe43XKa2YKoQRIhRry9bCsC4,4.0,"['atm', 'finance', 'point_of_interest', 'establishment']",22.1504591,-100.9909692,San Luis Potosí
OPERATIONAL,"CARRETERA MATEHUALA 3600 SOLEDAD DE GRACIANO SANCHEZ CE, 78430 Soledad de Graciano Sánchez, S.L.P., Mexico",BBVA Bancomer,ChIJGVEfZryhKoQRmFKGxMlwCqA,3.6,"['atm', 'finance', 'point_of_interest', 'establishment']",22.1827612,-100.9510554,San Luis Potosí
OPERATIONAL,"Calz, De Los Insurgentes 847 sur, Centro, 80000 Culiacán Rosales, Sin., Mexico",BBVA,ChIJc7GIg5bQvIYRlTH5B3MtWg8,3.0,"['bank', 'atm', 'finance', 'point_of_interest', 'establishment']",24.7961132,-107.4119691,Sinaloa
OPERATIONAL,"Blvd. Emiliano Zapata 380, Guadalupe, 80220 Culiacán Rosales, Sin., Mexico",BBVA Culiacán Sede,ChIJIzye87nQvIYRCwhgObLaoeo,2.9,"['bank', 'atm', 'finance', 'point_of_interest', 'establishment']",24.7968485,-107.3980662,Sinaloa
OPERATIONAL,"Calz. Aeropuerto 5528 PTE, Gasolinera del Valle, Bachigualato, 80150 Culiacán Rosales, Sin., Mexico",BBVA Culiacan plaza Humaya,ChIJ5VZkEUXQvIYRuK7ngSaKV9s,3.9,"['bank', 'atm', 'finance', 'point_of_interest', 'establishment']",24.7765092,-107.4470545,Sinaloa
OPERATIONAL,"Blvd. Emiliano Zapata 2340, Sin Asignación En Nombre de Asentamiento, 80000 Culiacán Rosales, Sin., Mexico",BBVA,ChIJE-F8iozQvIYR3Brr7Fv7OHQ,2.9,"['bank', 'atm', 'finance', 'point_of_interest', 'establishment']",24.7920453,-107.4206879,Sinaloa
OPERATIONAL,"Gral. Antonio Rosales, Poniente 50, Centro, 80000 Culiacán Rosales, Sin., Mexico",BBVA,ChIJZwFuyajQvIYR2Y6wPXCiUVQ,2.8,"['bank', 'atm', 'finance', 'point_of_interest', 'establishment']",24.8096457,-107.3952783,Sinaloa
OPERATIONAL,"Diego Valadés Ríos 164 PTE, Desarrollo Urbano, 80030 Culiacán Rosales, Sin., Mexico",BBVA Culiacan Tres Rios,ChIJKW8gGQjavIYRKYP1uws5j3k,4.7,"['bank', 'atm', 'finance', 'point_of_interest', 'establishment']",24.8152095,-107.398651,Sinaloa
OPERATIONAL,"CALZ, Heroico Colegio Militar S/N, Mercado de Abastos, 80299 Culiacán Rosales, Sin., Mexico",BBVA Abastos Culiacan,ChIJGY3IDN_WvIYR6jQ9Tu4vDoo,3.9,"['bank', 'atm', 'finance', 'point_of_interest', 'establishment']",24.7711909,-107.364501,Sinaloa
OPERATIONAL,"Calz. de las Torres 1787, 80197 Culiacán Rosales, Sin., Mexico",BBVA,ChIJ82KRFpfRvIYRpovChNIsciE,3.9,"['bank', 'atm', 'finance', 'point_of_interest', 'establishment']",24.7558777,-107.4033637,Sinaloa
OPERATIONAL,"Calle Josefa Ortiz de Domínguez 200, Residencial Alameda, Alameda, 80040 Culiacán Rosales, Sin., Mexico",BBVA,ChIJLUKdYQHavIYRNE9u45UzfgM,3.7,"['bank', 'atm', 'finance', 'point_of_interest', 'establishment']",24.8214976,-107.3993182,Sinaloa
OPERATIONAL,"Blvd. Francisco I. Madero 857, Primer Cuadro, Oriente Centro, 80000 Culiacán Rosales, Sin., Mexico",BBVA Culiacan Blvd Madero,ChIJvZW3pVLXvIYRoEmOjv2ZbSk,3.3,"['bank', 'atm', 'finance', 'point_of_interest', 'establishment']",24.8055076,-107.3840722,Sinaloa
OPERATIONAL,"Blvd. Isla Musalá 1531, Fracc Musalá Isla Bonita, Raquet Club, 80060 Culiacán Rosales, Sin., Mexico",BBVA Bancomer La Isla,ChIJm9Uz6-PZvIYRMklwctiE8NE,3.3,"['bank', 'atm', 'finance', 'point_of_interest', 'establishment']",24.8233825,-107.3705858,Sinaloa
OPERATIONAL,"Enrique Félix Castro 998, Desarrollo Urbano Tres Ríos, 80020 Culiacán Rosales, Sin., Mexico",BBVA,ChIJj6dbxAzavIYR39-0R_sOx5M,3.9,"['bank', 'atm', 'finance', 'point_of_interest', 'establishment']",24.8212514,-107.4076321,Sinaloa
OPERATIONAL,"Blvrd Dr Mora 1331, Las Quintas, 80060 Culiacán Rosales, Sin., Mexico",BBVA Dr Mora,ChIJbUW9CVfXvIYRfu5ULCd60lw,4.5,"['bank', 'atm', 'finance', 'point_of_interest', 'establishment']",24.8145012,-107.3750659,Sinaloa
OPERATIONAL,"Angel Flores 77 PTE, Centro, 80320 Navolato, Sin., Mexico",BBVA Navolato,ChIJF8AAkya3vIYR3nal18rQ234,4.2,"['bank', 'atm', 'finance', 'point_of_interest', 'establishment']",24.7677374,-107.6982607,Sinaloa
OPERATIONAL,"Nevado de Toluca, SIN 3-21 s/n, Rincón del Humaya, 80058 Culiacán Rosales, Sin., Mexico",Atm/Cajero BBVA Suc Lola Beltran100,ChIJR625mX7avIYRfjhyBpmxX8Q,3.8,"['atm', 'finance', 'point_of_interest', 'establishment']",24.8161663,-107.4284125,Sinaloa
OPERATIONAL,"Sinaloa Villa Ángel Flores - El Castillo, Primer Cuadro, Navolato, Sin., Mexico",Atm/Cajero BBVA F Benavides Navolato527,ChIJh4S70423vIYRgeXLgJ6qsSI,5.0,"['atm', 'finance', 'point_of_interest', 'establishment']",24.7697,-107.698,Sinaloa
OPERATIONAL,"Blvd. Pedro Infante No. 2251, FRACC, Desarrollo Urbano Tres Ríos, 80298 Culiacán Rosales, Sin., Mexico",BBVA,ChIJDWL-1WLRvIYRCCt8TbAWg7A,1.0,"['bank', 'atm', 'finance', 'point_of_interest', 'establishment']",24.7982563,-107.4214518,Sinaloa
OPERATIONAL,"Prol. Álvaro Obregón 2861, Montebello, 80227 Culiacán Rosales, Sin., Mexico",BBVA,ChIJi5UdRkLRvIYRssIQextMozc,1.0,"['bank', 'atm', 'finance', 'point_of_interest', 'establishment']",24.7807742,-107.3954611,Sinaloa
OPERATIONAL,"Bv. José Limon 12, Feria Ganadera, 80020 Culiacán Rosales, Sin., Mexico",BBVA,ChIJsYtpjizbvIYR40m815r6U4E,0.0,"['bank', 'atm', 'finance', 'point_of_interest', 'establishment']",24.8256427,-107.425392,Sinaloa
OPERATIONAL,"Agustina Ramírez 232 SUR, Zona Centro, 81400 Guamúchil, Sin., Mexico",BBVA,ChIJ_6qA0dmHu4YRKkJcbJK2i-A,3.5,"['bank', 'atm', 'finance', 'point_of_interest', 'establishment']",25.4603851,-108.0832054,Sinaloa
OPERATIONAL,"Mariano Matamoros, Av Sonora &, Centro, 83000 Hermosillo, Son., Mexico",BBVA,ChIJS44_ckuEzoYRuoMzcfBw9yk,2.8,"['bank', 'atm', 'finance', 'point_of_interest', 'establishment']",29.0818724,-110.9527925,Sonora
OPERATIONAL,"Blvd. Luis Encinas J. s/n, San Benito, 83190 Hermosillo, Son., Mexico",BBVA Principal Office,ChIJ9e8uTjyEzoYRU4i0-HPC8AE,3.4,"['bank', 'atm', 'finance', 'point_of_interest', 'establishment']",29.0907446,-110.9714299,Sonora
OPERATIONAL,"Av Cultura 81, Proyecto Rio Sonora Hermosillo XXI, 83270 Hermosillo, Son., Mexico",BBVA Bancomer PABELLON REFORM,ChIJOV8ApVmEzoYRfvLfg67vRsc,1.9,"['bank', 'atm', 'finance', 'point_of_interest', 'establishment']",29.0659926,-110.9650922,Sonora
OPERATIONAL,"Blvd, Eusebio Francisco Kino 400, 83150 Hermosillo, Son., Mexico",BBVA,ChIJMzxY8s2FzoYRtPr7WDfA658,3.1,"['bank', 'atm', 'finance', 'point_of_interest', 'establishment']",29.0981171,-110.9460356,Sonora
OPERATIONAL,"Av Veracruz 53, San Benito, 83190 Hermosillo, Son., Mexico",BBVA,ChIJBzL2ezGEzoYRq2CdsjkhZvw,3.8,"['bank', 'atm', 'finance', 'point_of_interest', 'establishment']",29.0935893,-110.9567069,Sonora
OPERATIONAL,"Av Aquiles Serdán 141, Centro, 83000 Hermosillo, Son., Mexico",BBVA,ChIJDZX3uE2EzoYR8aQMXzbjcNc,2.7,"['bank', 'atm', 'finance', 'point_of_interest', 'establishment']",29.0767179,-110.9552798,Sonora
OPERATIONAL,"Blvd. Jesús García Morales 2, Montebello, 83210 Hermosillo, Son., Mexico",BBVA,ChIJFUYk8AaEzoYRanSLjrKMlnQ,2.6,"['bank', 'atm', 'finance', 'point_of_interest', 'establishment']",29.0943301,-110.9943439,Sonora
OPERATIONAL,"Bulevar José María Morelos, Paseo de La Castaña &, Bachoco, 83148 Hermosillo, Son., Mexico",BBVA Morelos Norte CR 1108,ChIJr6WYgoqGzoYRS6jM-4Jz32k,2.3,"['bank', 'atm', 'finance', 'point_of_interest', 'establishment']",29.1289383,-110.9506904,Sonora
OPERATIONAL,"Periférico Norte 175-A, Balderrama, 83180 Hermosillo, Son., Mexico",BBVA,ChIJg1Q115yGzoYRCSov7RrHWww,1.5,"['bank', 'atm', 'finance', 'point_of_interest', 'establishment']",29.1104559,-110.9638246,Sonora
OPERATIONAL,"Av Luis Donaldo Colosio 294, Prados del Centenario, 83250 Hermosillo, Son., Mexico",BBVA Colosio,ChIJy2Sv-0CEzoYRMsWKvrW9buI,4.3,"['bank', 'atm', 'finance', 'point_of_interest', 'establishment']",29.0809918,-110.971013,Sonora
OPERATIONAL,"Boulevard Antonio Quiroga 547, Quinta Emilia, 83184 Hermosillo, Son., Mexico",Bancomer Quiroga Square,ChIJ0ezt9t-DzoYR2xllMXbG1cM,2.8,"['bank', 'atm', 'finance', 'point_of_interest', 'establishment']",29.0967206,-111.0233137,Sonora
OPERATIONAL,"Blvd. Juan Navarrete 188, Valle Grande, 83205 Hermosillo, Son., Mexico",BBVA,ChIJn-P1zhWEzoYR7xPxK3dWZ2c,1.8,"['bank', 'atm', 'finance', 'point_of_interest', 'establishment']",29.0871838,-110.9769057,Sonora
OPERATIONAL,"Bulevar Paseo Río Sonora, Proyecto Rio Sonora Hermosillo XXI, 83270 Hermosillo, Son., Mexico",Atm/Cajero BBVA Sams Club Hermosillo1123,ChIJCZKBh1mEzoYRrgUeVPv2iD0,4.5,"['atm', 'finance', 'point_of_interest', 'establishment']",29.06759719999999,-110.9658685,Sonora
OPERATIONAL,"Periférico Oriente 1274, Perisur, 83290 Hermosillo, Son., Mexico",BBVA Bancomer Plaza Sendero,ChIJUYxLMiWFzoYR9TE9DfDvHKM,2.7,"['bank', 'atm', 'finance', 'point_of_interest', 'establishment']",29.0350221,-110.9396897,Sonora
OPERATIONAL,"Periférico Norte SN, Jesus Garcia, 83140 Hermosillo, Son., Mexico",BBVA BANCOMER,ChIJUbbr2pyGzoYRh1bgZoR2liY,3.4,"['atm', 'finance', 'point_of_interest', 'establishment']",29.1102565,-110.9632869,Sonora
OPERATIONAL,"Av Cultura 81, Proyecto Rio Sonora Hermosillo XXI, 83270 Hermosillo, Son., Mexico",Atm/Cajero BBVA Galerias Mall Sonora360,ChIJ783lTVWEzoYRwUr0AEfUL5A,2.3,"['atm', 'finance', 'point_of_interest', 'establishment']",29.0662072,-110.9640981,Sonora
OPERATIONAL,"Av. Sonora y Calle 4a. Este, Cuarta Este, Cementerio Viejo, 84620 Cananea, Son., Mexico",BBVA Bancomer,ChIJE-0RP4rh0IYRPEZrgGUx12Q,2.3,"['bank', 'atm', 'finance', 'point_of_interest', 'establishment']",30.9836871,-110.3025189,Sonora
OPERATIONAL,"Bulevar Solidaridad # 315, Zona, 83130 Hermosillo, Son., Mexico",BBVA,ChIJk4lNc66GzoYRqX6-0s1ls7Q,3.6,"['bank', 'atm', 'finance', 'point_of_interest', 'establishment']",29.1114269,-110.9918563,Sonora
OPERATIONAL,"Av Aquiles Serdán, Centro, 83000 Hermosillo, Son., Mexico",hipotecaria bancomer,ChIJiRBNBU2EzoYRdN5eRhl17X4,5.0,"['bank', 'finance', 'point_of_interest', 'establishment']",29.0773712,-110.9529069,Sonora
OPERATIONAL,"Camelia Poniente 8, Libertad, 83130 Hermosillo, Son., Mexico",BBVA Bancomer,ChIJIyqJPrKGzoYRFiD_h4s84eM,1.5,"['atm', 'finance', 'point_of_interest', 'establishment']",29.1146313,-110.9934969,Sonora
OPERATIONAL,"Av. Paseo de Tabasco 1042, Tabasco 2000, 86035 Tab., Mexico",BBVA,ChIJAZoQaQJ_QxERM6DEd7o3GHY,3.7,"['bank', 'atm', 'finance', 'point_of_interest', 'establishment']",17.9981432,-92.94296659999999,Tabasco
OPERATIONAL,"Av Paseo Tabasco 1405, Jesus Garcia, 86040 Villahermosa, Tab., Mexico",BBVA Bancomer,ChIJe4ynIo3X7YURDf2sJnnZKXs,4.0,"['bank', 'atm', 'finance', 'point_of_interest', 'establishment']",18.0006112,-92.9472273,Tabasco
OPERATIONAL,"Av Francisco I. Madero 100, Centro, 86000 Villahermosa, Tab., Mexico",BBVA,ChIJx6NOzEDY7YUR-OBM4VPEbWY,3.7,"['bank', 'atm', 'finance', 'point_of_interest', 'establishment']",17.9967814,-92.91591799999999,Tabasco
OPERATIONAL,"Av. Gregorio Méndez Magaña 2613, Atasta de Serra, 86100 Villahermosa, Tab., Mexico",BBVA,ChIJ962bX4PX7YURG0m5u65Tj8k,3.7,"['bank', 'atm', 'finance', 'point_of_interest', 'establishment']",17.9838053,-92.9466909,Tabasco
OPERATIONAL,"o. de Mayo, Perif. Carlos Pellicer Cámara, Plaza Villahermosa, 86179 Villahermosa, Tab., Mexico",Bancomer,ChIJjT7I4GLX7YURsLQwURxsJMc,3.5,"['bank', 'atm', 'finance', 'point_of_interest', 'establishment']",17.96504,-92.9395282,Tabasco
OPERATIONAL,"Periférico Carlos Pellicer Cámara 1020, El Recreo, 86020 Villahermosa, Tab., Mexico",BBVA Bancomer,ChIJuw7lXHHY7YURmZtRAmmz6zM,4.3,"['bank', 'atm', 'finance', 'point_of_interest', 'establishment']",18.0194279,-92.912908,Tabasco
OPERATIONAL,"Miguel Hidalgo 205, Centro, 86700 Macuspana, Tab., Mexico",BBVA,ChIJ-VCx443x7YUReGM0do_mxww,3.9,"['bank', 'atm', 'finance', 'point_of_interest', 'establishment']",17.7574887,-92.5944145,Tabasco
OPERATIONAL,"Profesor, Ramon Mendoza 102, Jose Maria Pino Suarez, 86029 Villahermosa, Tab., Mexico",BBVA Villahermosa las Americas,ChIJ--VUmhLY7YURtEUdOTSr2S0,3.4,"['bank', 'atm', 'finance', 'point_of_interest', 'establishment']",18.0143787,-92.91886699999999,Tabasco
OPERATIONAL,"Av Gregorio Méndez 102, Centro, 86800 Teapa, Tab., Mexico",BBVA Teapa,ChIJWf8WfbSw7YUR8K_68ljGtMQ,4.4,"['bank', 'atm', 'finance', 'point_of_interest', 'establishment']",17.5492093,-92.9531683,Tabasco
OPERATIONAL,"Calle Gral Ignacio Zaragoza 702, Centro, 86000 Villahermosa, Tab., Mexico",BBVA Bancomer Ofna Villahermosa. Principal,ChIJI1t-ATjY7YURwJoL7QSvJ8s,3.7,"['bank', 'atm', 'finance', 'point_of_interest', 'establishment']",17.9906933,-92.9178295,Tabasco
OPERATIONAL,"Calle Rita Estrada 3, Primero de Mayo, 86190 Villahermosa, Tab., Mexico",BBVA Villahermosa CD. Deportiva,ChIJu_3_DHnX7YUR_sxIGfeWiNU,2.7,"['bank', 'atm', 'finance', 'point_of_interest', 'establishment']",17.9774474,-92.94139679999999,Tabasco
OPERATIONAL,"Palacio Municipal, Av Paseo Tabasco, Tabasco 2000, Los Rios, 86035 Villahermosa, Tab., Mexico",BBVA Bancomer,ChIJo0Bu7YzX7YURz4ko_phAA1E,3.0,"['atm', 'finance', 'point_of_interest', 'establishment']",17.9998918,-92.94393099999999,Tabasco
OPERATIONAL,"Av. Gregorio Méndez Magaña No. 3303, Tamulte de las Barrancas, 86150 Villahermosa, Tab., Mexico",BBVA,ChIJ-z0QzXXX7YURrNpWLRUs9Oo,3.5,"['bank', 'atm', 'finance', 'point_of_interest', 'establishment']",17.9752833,-92.95328549999999,Tabasco
OPERATIONAL,"CORONEL, Av. Gregorio Méndez Magaña S/N, Nueva Villahermosa, 86070 Villahermosa, Tab., Mexico",BBVA Pages Llergo,ChIJcfmTrSTY7YURvvy90VVGLis,4.1,"['bank', 'atm', 'finance', 'point_of_interest', 'establishment']",17.9957159,-92.92785099999999,Tabasco
OPERATIONAL,"Av 18 de Marzo, Obrera, 86720 Cd Pemex, Tab., Mexico",BBVA,ChIJHYgO8Vz47YURS0ySlce65Zg,3.7,"['bank', 'atm', 'finance', 'point_of_interest', 'establishment']",17.8805635,-92.4834057,Tabasco
OPERATIONAL,"Anillo, Perif. Carlos Pellicer Cámara 18, de Mayo, 86150 Villahermosa, Tab., Mexico",BBVA Soriana San Joaquin,ChIJ55wSUgTX7YURHdODmvVlLnc,3.6,"['bank', 'atm', 'finance', 'point_of_interest', 'establishment']",17.9681973,-92.9433191,Tabasco
OPERATIONAL,"Av Paseo Tabasco 2000, Los Rios, 86035 Villahermosa, Tab., Mexico",Atm/Cajero BBVA Construcciones Rig,ChIJvwwc1erX7YURhPzZRgu7xHQ,0.0,"['atm', 'finance', 'point_of_interest', 'establishment']",18.0009205,-92.946058,Tabasco
OPERATIONAL,"AV. Tamaulipas SN Ampl, Unidad Nacional, 89410 Cd Madero, Tamps., Mexico",BBVA,ChIJDYBdpqT514UR-QbLkKfGSCc,4.3,"['bank', 'atm', 'finance', 'point_of_interest', 'establishment']",22.2758288,-97.84466200000001,Tamaulipas
OPERATIONAL,"Francisco I. Madero 1019, Sin Nombre de Col 1, Centro, 89730 Villa Manuel, Tamps., Mexico",BBVA,ChIJOSStBCxmeIYRF_MCsXaUsos,4.2,"['bank', 'atm', 'finance', 'point_of_interest', 'establishment']",22.7314,-98.315,Tamaulipas
OPERATIONAL,"Gral. César López de Lara 211, Centro, 89000 Tampico, Tamps., Mexico",BBVA Bancomer Center Tampico,ChIJMYyPMD_314URpFI026yfcNk,4.2,"['bank', 'atm', 'finance', 'point_of_interest', 'establishment']",22.2135187,-97.8551131,Tamaulipas
OPERATIONAL,"Prol, Av. Miguel Hidalgo 4715, Lomas de Rosales, 89100 Tampico, Tamps., Mexico",BBVA,ChIJZ3cE-SD614URgL26fiQIQYc,3.0,"['bank', 'atm', 'finance', 'point_of_interest', 'establishment']",22.2651371,-97.8742434,Tamaulipas
OPERATIONAL,"Av. Ejército Mexicano No. 1101, Centro, 89130 Tampico, Tamps., Mexico",BBVA,ChIJ0XbUY_r514URBj_ns6Bk1Fk,2.2,"['bank', 'atm', 'finance', 'point_of_interest', 'establishment']",22.2524825,-97.8614468,Tamaulipas
OPERATIONAL,"Blvd. Miguel Alemán No. 214, San Pedro, 88300 Cd Miguel Alemán, Tamps., Mexico",BBVA,ChIJTSoh7utxZIYRwmLIVp6gGuk,4.0,"['bank', 'atm', 'finance', 'point_of_interest', 'establishment']",26.3984377,-99.0303328,Tamaulipas
OPERATIONAL,"Av Tamaulipas 3191, Residencial la Misión, 87025 Cd Victoria, Tamps., Mexico",BBVA Victoria Campestre,ChIJvX_lrJ5TeYYRzFU8vFWO6g0,4.1,"['bank', 'atm', 'finance', 'point_of_interest', 'establishment']",23.7593354,-99.14001220000002,Tamaulipas
OPERATIONAL,"Calle Cristóbal Colón Nte. 113, Zona Centro, 87000 Cd Victoria, Tamps., Mexico",BBVA Bancomer CD VICTORIA HEADQUARTERS,ChIJMwHrr6pTeYYRs6MJWeM7rmo,3.3,"['bank', 'atm', 'finance', 'point_of_interest', 'establishment']",23.7308055,-99.14494499999999,Tamaulipas
OPERATIONAL,"Blvd. Morelos 395, Anzalduas, 88630 Reynosa, Tamps., Mexico",BBVA,ChIJxTLy0zAPZYYROQIjN0meeVQ,3.6,"['bank', 'atm', 'finance', 'point_of_interest', 'establishment']",26.0777902,-98.28117549999999,Tamaulipas
OPERATIONAL,"Juárez 112, Centro, 89750 Xicoténcatl, Tamps., Mexico",BBVA Xicotencatl,ChIJWRG_ZpjbeIYRXbeNJv0IAns,4.0,"['bank', 'atm', 'finance', 'point_of_interest', 'establishment']",22.9956101,-98.9454988,Tamaulipas
OPERATIONAL,"Calle Juan B. Tijerina 926, Residencial Selectas, 87000 Cd Victoria, Tamps., Mexico",BBVA,ChIJqbNLSahTeYYR7jiYfqXtozk,3.8,"['bank', 'atm', 'finance', 'point_of_interest', 'establishment']",23.7394184,-99.143946,Tamaulipas
OPERATIONAL,"Miguel Hidalgo 106 Sur, Centro, 89800 Cd Mante, Tamps., Mexico",BBVA Cd. Mante,ChIJg4X5gH64eIYRJ7g4ujS-Av0,2.9,"['bank', 'atm', 'finance', 'point_of_interest', 'establishment']",22.7429587,-98.97186889999999,Tamaulipas
OPERATIONAL,"Av. Álvaro Obregón, Refinería Madero, 89530 Cd Madero, Tamps., Mexico",BBVA CD. Madero Refineria,ChIJ1TwZIGr414URP8CMe0K0Wpg,5.0,"['bank', 'atm', 'finance', 'point_of_interest', 'establishment']",22.2712583,-97.8054794,Tamaulipas
OPERATIONAL,"Cd Río Bravo - Matamoros 168, Zona Centro, 87300 Heroica Matamoros, Tamps., Mexico",BBVA,ChIJiZeznpKUb4YRWM1e_Gf75Co,3.8,"['bank', 'atm', 'finance', 'point_of_interest', 'establishment']",25.8782934,-97.5090841,Tamaulipas
OPERATIONAL,"Calle 15 y, Calle Alberto Carrera Torres 249, Centro, 87000 Cd Victoria, Tamps., Mexico",BBVA,ChIJ2fDWjQZTeYYR1koJiPWD4iA,4.7,"['bank', 'atm', 'finance', 'point_of_interest', 'establishment']",23.7378506,-99.1500032,Tamaulipas
OPERATIONAL,"Av Pedro Cárdenas 100, Victoria Secc Fiesta, 87390 Heroica Matamoros, Tamps., Mexico",BBVA,ChIJ0X1uD7WUb4YRXcNvyEiGY_Q,3.3,"['bank', 'atm', 'finance', 'point_of_interest', 'establishment']",25.8490629,-97.5053554,Tamaulipas
OPERATIONAL,"Avenida Universidad 707, Los Pinos, 89100 Tampico, Tamps., Mexico",BBVA,ChIJvQGT6pL514URD7KM4a0c_A4,3.5,"['bank', 'atm', 'finance', 'point_of_interest', 'establishment']",22.2642407,-97.8598102,Tamaulipas
OPERATIONAL,"BULCANIZADORA, Tampico-altamira sn, Américo Villarreal Guerra, 89604 Miramar, Tamps., Mexico",Bancomer,ChIJM0htXv7714URS3UbKvr6FIs,3.3,"['bank', 'atm', 'finance', 'point_of_interest', 'establishment']",22.3285412,-97.8740138,Tamaulipas
OPERATIONAL,"Av. Primero de Mayo 601, Primero de Mayo, 89400 Cd Madero, Tamps., Mexico",BBVA,ChIJS6rBktr514URAXH7Z1yX8VQ,3.8,"['bank', 'atm', 'finance', 'point_of_interest', 'establishment']",22.2495012,-97.8407299,Tamaulipas
OPERATIONAL,"CRTA REYNOSA, Cd Río Bravo - Matamoros KM. 83, Industrial Reynosa, 88788 Reynosa, Tamps., Mexico",BBVA,ChIJH7jVJAsOZYYRvzg8x4ErJrU,3.6,"['bank', 'atm', 'finance', 'point_of_interest', 'establishment']",26.0188107,-98.22395189999999,Tamaulipas
OPERATIONAL,"Av Benito Juárez 54, Centro, 90000 Tlaxcala de Xicohténcatl, Tlax., Mexico",BBVA,ChIJVYlgAzvZz4URtycGQw7kOaA,3.1,"['bank', 'atm', 'finance', 'point_of_interest', 'establishment']",19.320891,-98.2351204,Tlaxcala
OPERATIONAL,"Guillermo Valle, Centro, 90000 Tlaxcala de Xicohténcatl, Tlax., Mexico",Bbva Bancomer Cajero Automatico,ChIJ4x30US7Zz4URweEp_O-xVQ8,1.0,"['bank', 'atm', 'finance', 'point_of_interest', 'establishment']",19.3255708,-98.22914170000001,Tlaxcala
OPERATIONAL,"Carr. Sta. Ana - Tlaxcala 127, Centro, 90800 Chiautempan, Tlax., Mexico",BBVA,ChIJ8QsXD8Hez4UR3DVuSnJafQo,3.3,"['bank', 'atm', 'finance', 'point_of_interest', 'establishment']",19.3199116,-98.206814,Tlaxcala
OPERATIONAL,"Racho la Aguanaja, Plaza Gran Patio, San Pablo Apetatitlán, 90600 Tlaxcala de Xicohténcatl, Tlax., Mexico",BBVA Bancomer,ChIJvbffLiDfz4URCe-EP0xgyYM,4.5,"['bank', 'atm', 'finance', 'point_of_interest', 'establishment']",19.3390642,-98.2006499,Tlaxcala
OPERATIONAL,"Llave, Centro, 93821 Misantla, Ver., Mexico",BBVA,ChIJia-k8UYR24UReg-YZRFFf_U,4.0,"['bank', 'atm', 'finance', 'point_of_interest', 'establishment']",19.9284777,-96.85295119999999,Veracruz de Ignacio de la Llave
OPERATIONAL,"Av, Calz Simon Bolívar 364, Ignacio Zaragoza, 91910 Veracruz, Ver., Mexico",BBVA,ChIJbVZvfTFBw4URm-lemIm_DkI,3.5,"['bank', 'atm', 'finance', 'point_of_interest', 'establishment']",19.1752411,-96.1240792,Veracruz de Ignacio de la Llave
OPERATIONAL,"Dr Rafael Cuervo X 1150, Reserva, Vergara Tarimoya, 91855 Veracruz, Ver., Mexico",BBVA veracruz las brisas,ChIJOdIVilpEw4URg3G5DNwTeNw,3.1,"['bank', 'atm', 'finance', 'point_of_interest', 'establishment']",19.2135115,-96.1869385,Veracruz de Ignacio de la Llave
OPERATIONAL,"J.B. Lobos Fracc, Coyol, 91779 Veracruz, Ver., Mexico",BBVA Veracruz Coyol,ChIJP49f9fxDw4URmFUQtqlTMG0,3.6,"['bank', 'atm', 'finance', 'point_of_interest', 'establishment']",19.1710711,-96.1602334,Veracruz de Ignacio de la Llave
OPERATIONAL,"Calle Hernán Cortés 260, Centro, 91700 Veracruz, Ver., Mexico",BBVA Bancomer Market,ChIJXwRebbpGw4URuReRG1w82gU,3.8,"['bank', 'atm', 'finance', 'point_of_interest', 'establishment']",19.1932514,-96.1382143,Veracruz de Ignacio de la Llave
OPERATIONAL,"Av Canales S/N, Zona Centro, Cabecera Municipal, 94290 Boca del Río, Ver., Mexico",BBVA,ChIJtx4qKDJAw4URNwQJxxUOGbc,3.1,"['bank', 'atm', 'finance', 'point_of_interest', 'establishment']",19.1013029,-96.1049956,Veracruz de Ignacio de la Llave
OPERATIONAL,"Calle Emiliano Zapata 32, Centro, 91680 José Cardel, Ver., Mexico",BBVA,ChIJPTeUXdpVw4URb8m-KfkxzHI,4.0,"['bank', 'atm', 'finance', 'point_of_interest', 'establishment']",19.3704716,-96.37722049999999,Veracruz de Ignacio de la Llave
OPERATIONAL,"Av. Gral. Prim 44, Centro, 91700 Veracruz, Ver., Mexico",BBVA,ChIJ21aKp7lGw4URXb4URbItKSk,3.8,"['bank', 'atm', 'finance', 'point_of_interest', 'establishment']",19.1956337,-96.1348678,Veracruz de Ignacio de la Llave
OPERATIONAL,"Adolfo Lopez Mateos 17, 92700 Chicontepec de Tejeda, Ver., Mexico",BBVA,ChIJt-9tn8k114URJE5jC9vLvCw,3.0,"['bank', 'atm', 'finance', 'point_of_interest', 'establishment']",20.9718508,-98.1707253,Veracruz de Ignacio de la Llave
OPERATIONAL,"Plaza Crystal, C.C, Av. Salvador Díaz Mirón Fraccionamiento, Floresta, 91940 Veracruz, Ver., Mexico",BBVA,ChIJa7_2XkBBw4URPKIlZ1n0eLM,2.7,"['bank', 'atm', 'finance', 'point_of_interest', 'establishment']",19.1598728,-96.13258719999999,Veracruz de Ignacio de la Llave
OPERATIONAL,"Carr. Veracruz-Xalapa 317, Bruno Pagliai, 91697 Delfino Victoria, Ver., Mexico",BBVA,ChIJM6NC-lpDw4URt1leb9dvWdM,3.5,"['bank', 'atm', 'finance', 'point_of_interest', 'establishment']",19.1688055,-96.2259766,Veracruz de Ignacio de la Llave
OPERATIONAL,"Av. Las Américas, Zona Hotelera, 94298 Veracruz, Ver., Mexico",BBVA,ChIJczJHBfxAw4URk7RsAxC-mLY,2.0,"['bank', 'atm', 'finance', 'point_of_interest', 'establishment']",19.1403273,-96.1072236,Veracruz de Ignacio de la Llave
OPERATIONAL,"Bv. Adolfo Ruíz Cortines 2270, Jardines del Virginia, 94299 Veracruz, Ver., Mexico",BBVA,ChIJpWkw1-NAw4URNh2PQQ9TbII,3.7,"['bank', 'atm', 'finance', 'point_of_interest', 'establishment']",19.1525534,-96.10766339999999,Veracruz de Ignacio de la Llave
OPERATIONAL,"Av. Cuauhtémoc 1973-2065, Cristóbal Colón, 91755 Veracruz, Ver., Mexico",BBVA Bancomer - Las Palmas,ChIJD6BH3R1Ew4UR5Y7I7esezpQ,3.7,"['bank', 'atm', 'finance', 'point_of_interest', 'establishment']",19.1974595,-96.15448409999999,Veracruz de Ignacio de la Llave
OPERATIONAL,"Av. Revolución 219, Centro, 95280 Lerdo de Tejada, Ver., Mexico",BBVA,ChIJHaAopCpawoURrjicUG4HzyE,3.7,"['bank', 'atm', 'finance', 'point_of_interest', 'establishment']",18.6314612,-95.5206822,Veracruz de Ignacio de la Llave
OPERATIONAL,"Av. Manuel Avila Camacho 34, Centro, 93550 Gutiérrez Zamora, Ver., Mexico",BBVA Bancomer GUTIERREZ ZAMORA,ChIJG2hmWEiz24URD6-Cxq_VhCY,3.2,"['bank', 'atm', 'finance', 'point_of_interest', 'establishment']",20.4517633,-97.0839026,Veracruz de Ignacio de la Llave
OPERATIONAL,"Av. Ignacio Zaragoza 717, Centro, 96400 Coatzacoalcos, Ver., Mexico",BBVA,ChIJG3CA__OC6YURKEMb4p92K7Y,3.9,"['bank', 'atm', 'finance', 'point_of_interest', 'establishment']",18.1455504,-94.4232322,Veracruz de Ignacio de la Llave
OPERATIONAL,"Manuel Ávila Camacho s/n, Centro, 93600 Martínez de la Torre, Ver., Mexico",BBVA,ChIJ8RIpTEwC24URCXQ4XpOVfQw,3.7,"['bank', 'atm', 'finance', 'point_of_interest', 'establishment']",20.0625082,-97.05330169999999,Veracruz de Ignacio de la Llave
OPERATIONAL,"Carr. Xalapa Veracruz no 680, Rubi Animas, 91198 Xalapa-Enríquez, Ver., Mexico",BBVA,ChIJMZaQKcsz24URqfiDDIrInWk,3.8,"['bank', 'atm', 'finance', 'point_of_interest', 'establishment']",19.5119209,-96.8772601,Veracruz de Ignacio de la Llave
OPERATIONAL,"Hidalgo 10, El Mirador, 92518 Cerro Azul, Ver., Mexico",BBVA,ChIJaxOOSy3i2YURQ5wlwktkSsU,4.8,"['bank', 'atm', 'finance', 'point_of_interest', 'establishment']",21.1937308,-97.74464549999999,Veracruz de Ignacio de la Llave
OPERATIONAL,"Calle 21 198, Centro, 97860 Ticul, Yuc., Mexico",BBVA,ChIJsaj8CWtSVo8RdHZJvf1_-_Y,3.8,"['bank', 'atm', 'finance', 'point_of_interest', 'establishment']",20.3988244,-89.5340241,Yucatán
OPERATIONAL,"Calle 56 454, Zona Paseo Montejo, Centro, 97000 Mérida, Yuc., Mexico",BBVA,ChIJze1N-lpxVo8Rt4Fwk2bJIis,4.0,"['bank', 'atm', 'finance', 'point_of_interest', 'establishment']",20.9836982,-89.61754270000002,Yucatán
OPERATIONAL,"Secc. 26, Calle 15 Mz 594, Col. Altabrisa, 97130 Mérida, Yuc., Mexico",BBVA,ChIJRdaZECF3Vo8RO4xY5umL6Gc,2.7,"['bank', 'atm', 'finance', 'point_of_interest', 'establishment']",21.0173727,-89.58381539999999,Yucatán
OPERATIONAL,"Calle 22, Homún, Yuc., Mexico",Atm/Cajero BBVA Municipio De Homun1366,ChIJE1SF7OGMVo8RsQALo8zxj_0,2.5,"['atm', 'finance', 'point_of_interest', 'establishment']",20.739445,-89.2857231,Yucatán
OPERATIONAL,"Calle 37 # 215 PLAZA URBAN Local 5 Montecristo, 97133 Mérida, Yuc., Mexico",BBVA Bancomer MONTECRISTO MERIDA,ChIJV49Z_cV2Vo8RLziT7UopULg,1.4,"['bank', 'atm', 'finance', 'point_of_interest', 'establishment']",21.0203889,-89.5965983,Yucatán
OPERATIONAL,"Macro plaza, Calle 33 200A, Itzimná 108, 97143 Mérida, Yuc., Mexico",BBVA,ChIJQY55WzN3Vo8RHL8BhuTYnbE,3.0,"['bank', 'atm', 'finance', 'point_of_interest', 'establishment']",20.9963912,-89.6059574,Yucatán
OPERATIONAL,"Calle 54 546 A, Centro, 97000 Mérida, Yuc., Mexico",BBVA Mercado Mérida,ChIJJd8orWRxVo8RhPksUBhHVXE,3.5,"['bank', 'atm', 'finance', 'point_of_interest', 'establishment']",20.9621488,-89.6199989,Yucatán
OPERATIONAL,"Prol. Paseo Montejo 92, México, 97120 Mérida, Yuc., Mexico",BBVA,ChIJwZC787F2Vo8RUj9oS76PIWM,2.9,"['bank', 'atm', 'finance', 'point_of_interest', 'establishment']",21.0046428,-89.6145092,Yucatán
